$GNRMC,081448.60,A,4612.66693,N,02009.40674,E,0.019,,190819,,,A*6E
$GNVTG,,T,,M,0.019,N,0.036,K,A*30
$GNGGA,081448.60,4612.66693,N,02009.40674,E,1,12,0.68,91.7,M,37.6,M,,*72
$GNRMC,081448.90,A,4612.66693,N,02009.40674,E,0.019,,190819,,,A*61
$GNVTG,,T,,M,0.019,N,0.035,K,A*33
$GNGGA,081448.90,4612.66693,N,02009.40674,E,1,12,0.68,91.7,M,37.6,M,,*7D
$GNRMC,081449.20,A,4612.66693,N,02009.40674,E,0.028,,190819,,,A*69
$GNVTG,,T,,M,0.028,N,0.053,K,A*31
$GNGGA,081449.20,4612.66693,N,02009.40674,E,1,12,0.68,91.7,M,37.6,M,,*77
$GNRMC,081449.50,A,4612.66692,N,02009.40674,E,0.034,,190819,,,A*62
$GNVTG,,T,,M,0.034,N,0.062,K,A*3E
$GNGGA,081449.50,4612.66692,N,02009.40674,E,1,12,0.68,91.7,M,37.6,M,,*71
$GNRMC,081449.80,A,4612.66693,N,02009.40674,E,0.069,,190819,,,A*66
$GNVTG,,T,,M,0.069,N,0.129,K,A*38
$GNGGA,081449.80,4612.66693,N,02009.40674,E,1,12,0.68,91.6,M,37.6,M,,*7C
$GNRMC,081450.10,A,4612.66693,N,02009.40675,E,0.009,,190819,,,A*60
$GNVTG,,T,,M,0.009,N,0.016,K,A*33
$GNGGA,081450.10,4612.66693,N,02009.40675,E,1,12,0.68,91.6,M,37.6,M,,*7C
$GNRMC,081450.40,A,4612.66693,N,02009.40675,E,0.072,,190819,,,A*69
$GNVTG,,T,,M,0.072,N,0.133,K,A*39
$GNGGA,081450.40,4612.66693,N,02009.40675,E,1,12,0.68,91.6,M,37.6,M,,*79
$GNRMC,081450.70,A,4612.66692,N,02009.40675,E,0.132,,190819,,,A*6E
$GNVTG,,T,,M,0.132,N,0.244,K,A*3F
$GNGGA,081450.70,4612.66692,N,02009.40675,E,1,12,0.68,91.6,M,37.6,M,,*7B
$GNRMC,081451.00,A,4612.66691,N,02009.40674,E,0.085,,190819,,,A*67
$GNVTG,,T,,M,0.085,N,0.157,K,A*33
$GNGGA,081451.00,4612.66691,N,02009.40674,E,1,12,0.68,91.6,M,37.6,M,,*7F
$GNRMC,081451.30,A,4612.66691,N,02009.40675,E,0.025,,190819,,,A*6F
$GNVTG,,T,,M,0.025,N,0.046,K,A*38
$GNGGA,081451.30,4612.66691,N,02009.40675,E,1,12,0.68,91.6,M,37.6,M,,*7D
$GNRMC,081451.60,A,4612.66691,N,02009.40675,E,0.021,,190819,,,A*6E
$GNVTG,,T,,M,0.021,N,0.038,K,A*35
$GNGGA,081451.60,4612.66691,N,02009.40675,E,1,12,0.68,91.5,M,37.6,M,,*7B
$GNRMC,081451.90,A,4612.66691,N,02009.40675,E,0.036,,190819,,,A*67
$GNVTG,,T,,M,0.036,N,0.067,K,A*39
$GNGGA,081451.90,4612.66691,N,02009.40675,E,1,12,0.68,91.5,M,37.6,M,,*74
$GNRMC,081452.20,A,4612.66691,N,02009.40674,E,0.026,,190819,,,A*6F
$GNVTG,,T,,M,0.026,N,0.048,K,A*35
$GNGGA,081452.20,4612.66691,N,02009.40674,E,1,12,0.68,91.5,M,37.6,M,,*7D
$GNRMC,081452.50,A,4612.66690,N,02009.40675,E,0.030,,190819,,,A*6F
$GNVTG,,T,,M,0.030,N,0.055,K,A*3E
$GNGGA,081452.50,4612.66690,N,02009.40675,E,1,12,0.68,91.5,M,37.6,M,,*7A
$GNRMC,081452.80,A,4612.66689,N,02009.40675,E,0.016,,190819,,,A*6E
$GNVTG,,T,,M,0.016,N,0.030,K,A*39
$GNGGA,081452.80,4612.66689,N,02009.40675,E,1,12,0.68,91.4,M,37.6,M,,*7E
$GNRMC,081453.10,A,4612.66689,N,02009.40674,E,0.040,,190819,,,A*64
$GNVTG,,T,,M,0.040,N,0.073,K,A*3D
$GNGGA,081453.10,4612.66689,N,02009.40674,E,1,12,0.68,91.4,M,37.6,M,,*77
$GNRMC,081453.40,A,4612.66689,N,02009.40674,E,0.019,,190819,,,A*6D
$GNVTG,,T,,M,0.019,N,0.036,K,A*30
$GNGGA,081453.40,4612.66689,N,02009.40674,E,1,12,0.68,91.4,M,37.6,M,,*72
$GNRMC,081453.70,A,4612.66689,N,02009.40674,E,0.013,,190819,,,A*64
$GNVTG,,T,,M,0.013,N,0.025,K,A*38
$GNGGA,081453.70,4612.66689,N,02009.40674,E,1,12,0.68,91.3,M,37.6,M,,*76
$GNRMC,081454.00,A,4612.66689,N,02009.40673,E,0.040,,190819,,,A*65
$GNVTG,,T,,M,0.040,N,0.074,K,A*3A
$GNGGA,081454.00,4612.66689,N,02009.40673,E,1,12,0.68,91.3,M,37.6,M,,*71
$GNRMC,081454.30,A,4612.66688,N,02009.40674,E,0.017,,190819,,,A*62
$GNVTG,,T,,M,0.017,N,0.032,K,A*3A
$GNGGA,081454.30,4612.66688,N,02009.40674,E,1,12,0.68,91.3,M,37.6,M,,*74
$GNRMC,081454.60,A,4612.66688,N,02009.40673,E,0.028,,190819,,,A*6C
$GNVTG,,T,,M,0.028,N,0.053,K,A*31
$GNGGA,081454.60,4612.66688,N,02009.40673,E,1,12,0.68,91.3,M,37.6,M,,*76
$GNRMC,081454.90,A,4612.66688,N,02009.40673,E,0.014,,190819,,,A*6C
$GNVTG,,T,,M,0.014,N,0.025,K,A*3F
$GNGGA,081454.90,4612.66688,N,02009.40673,E,1,12,0.68,91.3,M,37.6,M,,*79
$GNRMC,081455.20,A,4612.66688,N,02009.40672,E,0.032,,190819,,,A*63
$GNVTG,,T,,M,0.032,N,0.060,K,A*3A
$GNGGA,081455.20,4612.66688,N,02009.40672,E,1,12,0.68,91.2,M,37.6,M,,*73
$GNRMC,081455.50,A,4612.66688,N,02009.40672,E,0.028,,190819,,,A*6F
$GNVTG,,T,,M,0.028,N,0.052,K,A*30
$GNGGA,081455.50,4612.66688,N,02009.40672,E,1,12,0.68,91.2,M,37.6,M,,*74
$GNRMC,081455.80,A,4612.66688,N,02009.40672,E,0.008,,190819,,,A*60
$GNVTG,,T,,M,0.008,N,0.014,K,A*30
$GNGGA,081455.80,4612.66688,N,02009.40672,E,1,12,0.68,91.2,M,37.6,M,,*79
$GNRMC,081456.10,A,4612.66689,N,02009.40671,E,0.026,,190819,,,A*64
$GNVTG,,T,,M,0.026,N,0.048,K,A*35
$GNGGA,081456.10,4612.66689,N,02009.40671,E,1,12,0.68,91.3,M,37.6,M,,*70
$GNRMC,081456.40,A,4612.66690,N,02009.40671,E,0.037,,190819,,,A*69
$GNVTG,,T,,M,0.037,N,0.069,K,A*36
$GNGGA,081456.40,4612.66690,N,02009.40671,E,1,12,0.68,91.3,M,37.6,M,,*7D
$GNRMC,081456.70,A,4612.66692,N,02009.40670,E,0.010,,190819,,,A*6C
$GNVTG,,T,,M,0.010,N,0.018,K,A*35
$GNGGA,081456.70,4612.66692,N,02009.40670,E,1,12,0.68,91.3,M,37.6,M,,*7D
$GNRMC,081457.00,A,4612.66693,N,02009.40670,E,0.037,,190819,,,A*6E
$GNVTG,,T,,M,0.037,N,0.069,K,A*36
$GNGGA,081457.00,4612.66693,N,02009.40670,E,1,12,0.68,91.4,M,37.6,M,,*7D
$GNRMC,081457.30,A,4612.66695,N,02009.40669,E,0.013,,190819,,,A*65
$GNVTG,,T,,M,0.013,N,0.024,K,A*39
$GNGGA,081457.30,4612.66695,N,02009.40669,E,1,12,0.68,91.4,M,37.6,M,,*70
$GNRMC,081457.60,A,4612.66697,N,02009.40668,E,0.044,,190819,,,A*61
$GNVTG,,T,,M,0.044,N,0.081,K,A*34
$GNGGA,081457.60,4612.66697,N,02009.40668,E,1,12,0.68,91.4,M,37.6,M,,*76
$GNRMC,081457.90,A,4612.66699,N,02009.40667,E,0.017,,190819,,,A*69
$GNVTG,,T,,M,0.017,N,0.032,K,A*3A
$GNGGA,081457.90,4612.66699,N,02009.40667,E,1,12,0.68,91.4,M,37.6,M,,*78
$GNRMC,081458.20,A,4612.66699,N,02009.40668,E,0.008,,190819,,,A*6C
$GNVTG,,T,,M,0.008,N,0.014,K,A*30
$GNGGA,081458.20,4612.66699,N,02009.40668,E,1,12,0.68,91.4,M,37.6,M,,*73
$GNRMC,081458.50,A,4612.66698,N,02009.40668,E,0.016,,190819,,,A*65
$GNVTG,,T,,M,0.016,N,0.030,K,A*39
$GNGGA,081458.50,4612.66698,N,02009.40668,E,1,12,0.68,91.4,M,37.6,M,,*75
$GNRMC,081458.80,A,4612.66697,N,02009.40669,E,0.022,,190819,,,A*61
$GNVTG,,T,,M,0.022,N,0.041,K,A*38
$GNGGA,081458.80,4612.66697,N,02009.40669,E,1,12,0.68,91.4,M,37.6,M,,*76
$GNRMC,081459.10,A,4612.66696,N,02009.40669,E,0.032,,190819,,,A*69
$GNVTG,,T,,M,0.032,N,0.060,K,A*3A
$GNGGA,081459.10,4612.66696,N,02009.40669,E,1,12,0.68,91.4,M,37.6,M,,*7F
$GNRMC,081459.40,A,4612.66697,N,02009.40669,E,0.019,,190819,,,A*64
$GNVTG,,T,,M,0.019,N,0.036,K,A*30
$GNGGA,081459.40,4612.66697,N,02009.40669,E,1,12,0.68,91.4,M,37.6,M,,*7B
$GNRMC,081459.70,A,4612.66698,N,02009.40668,E,0.009,,190819,,,A*68
$GNVTG,,T,,M,0.009,N,0.017,K,A*32
$GNGGA,081459.70,4612.66698,N,02009.40668,E,1,12,0.68,91.4,M,37.6,M,,*76
$GNRMC,081500.00,A,4612.66697,N,02009.40667,E,0.047,,190819,,,A*68
$GNVTG,,T,,M,0.047,N,0.088,K,A*3E
$GNGGA,081500.00,4612.66697,N,02009.40667,E,1,12,0.68,91.4,M,37.6,M,,*7C
$GNRMC,081500.30,A,4612.66697,N,02009.40666,E,0.019,,190819,,,A*61
$GNVTG,,T,,M,0.019,N,0.036,K,A*30
$GNGGA,081500.30,4612.66697,N,02009.40666,E,1,12,0.68,91.3,M,37.6,M,,*79
$GNRMC,081500.60,A,4612.66696,N,02009.40665,E,0.029,,190819,,,A*65
$GNVTG,,T,,M,0.029,N,0.053,K,A*30
$GNGGA,081500.60,4612.66696,N,02009.40665,E,1,12,0.68,91.3,M,37.6,M,,*7E
$GNRMC,081500.90,A,4612.66695,N,02009.40664,E,0.013,,190819,,,A*61
$GNVTG,,T,,M,0.013,N,0.024,K,A*39
$GNGGA,081500.90,4612.66695,N,02009.40664,E,1,12,0.68,91.3,M,37.6,M,,*73
$GNRMC,081501.20,A,4612.66694,N,02009.40664,E,0.019,,190819,,,A*60
$GNVTG,,T,,M,0.019,N,0.036,K,A*30
$GNGGA,081501.20,4612.66694,N,02009.40664,E,1,12,0.68,91.2,M,37.6,M,,*79
$GNRMC,081501.50,A,4612.66694,N,02009.40664,E,0.013,,190819,,,A*6D
$GNVTG,,T,,M,0.013,N,0.023,K,A*3E
$GNGGA,081501.50,4612.66694,N,02009.40664,E,1,12,0.68,91.2,M,37.6,M,,*7E
$GNRMC,081501.80,A,4612.66693,N,02009.40664,E,0.043,,190819,,,A*62
$GNVTG,,T,,M,0.043,N,0.079,K,A*34
$GNGGA,081501.80,4612.66693,N,02009.40664,E,1,12,0.68,91.2,M,37.6,M,,*74
$GNRMC,081502.10,A,4612.66692,N,02009.40663,E,0.055,,190819,,,A*69
$GNVTG,,T,,M,0.055,N,0.102,K,A*3E
$GNGGA,081502.10,4612.66692,N,02009.40663,E,1,12,0.68,91.1,M,37.6,M,,*7B
$GNRMC,081502.40,A,4612.66693,N,02009.40663,E,0.019,,190819,,,A*65
$GNVTG,,T,,M,0.019,N,0.035,K,A*33
$GNGGA,081502.40,4612.66693,N,02009.40663,E,1,12,0.68,91.1,M,37.6,M,,*7F
$GNRMC,081502.70,A,4612.66693,N,02009.40663,E,0.015,,190819,,,A*6A
$GNVTG,,T,,M,0.015,N,0.027,K,A*3C
$GNGGA,081502.70,4612.66693,N,02009.40663,E,1,12,0.68,91.1,M,37.6,M,,*7C
$GNRMC,081503.00,A,4612.66693,N,02009.40663,E,0.003,,190819,,,A*6B
$GNVTG,,T,,M,0.003,N,0.005,K,A*3B
$GNGGA,081503.00,4612.66693,N,02009.40663,E,1,12,0.68,91.1,M,37.6,M,,*7A
$GNRMC,081503.30,A,4612.66692,N,02009.40663,E,0.002,,190819,,,A*68
$GNVTG,,T,,M,0.002,N,0.005,K,A*3A
$GNGGA,081503.30,4612.66692,N,02009.40663,E,1,12,0.68,91.1,M,37.6,M,,*78
$GNRMC,081503.60,A,4612.66693,N,02009.40663,E,0.044,,190819,,,A*6E
$GNVTG,,T,,M,0.044,N,0.081,K,A*34
$GNGGA,081503.60,4612.66693,N,02009.40663,E,1,12,0.68,91.1,M,37.6,M,,*7C
$GNRMC,081503.90,A,4612.66693,N,02009.40663,E,0.019,,190819,,,A*69
$GNVTG,,T,,M,0.019,N,0.035,K,A*33
$GNGGA,081503.90,4612.66693,N,02009.40663,E,1,12,0.68,91.1,M,37.6,M,,*73
$GNRMC,081504.20,A,4612.66693,N,02009.40662,E,0.005,,190819,,,A*69
$GNVTG,,T,,M,0.005,N,0.009,K,A*31
$GNGGA,081504.20,4612.66693,N,02009.40662,E,1,12,0.68,91.1,M,37.6,M,,*7E
$GNRMC,081504.50,A,4612.66692,N,02009.40661,E,0.027,,190819,,,A*6C
$GNVTG,,T,,M,0.027,N,0.051,K,A*3C
$GNGGA,081504.50,4612.66692,N,02009.40661,E,1,12,0.68,91.1,M,37.6,M,,*7B
$GNRMC,081504.80,A,4612.66692,N,02009.40659,E,0.014,,190819,,,A*6A
$GNVTG,,T,,M,0.014,N,0.026,K,A*3C
$GNGGA,081504.80,4612.66692,N,02009.40659,E,1,12,0.68,91.0,M,37.6,M,,*7C
$GNRMC,081505.10,A,4612.66692,N,02009.40659,E,0.053,,190819,,,A*61
$GNVTG,,T,,M,0.053,N,0.098,K,A*3A
$GNGGA,081505.10,4612.66692,N,02009.40659,E,1,12,0.68,90.9,M,37.6,M,,*7C
$GNRMC,081505.40,A,4612.66692,N,02009.40658,E,0.043,,190819,,,A*64
$GNVTG,,T,,M,0.043,N,0.080,K,A*32
$GNGGA,081505.40,4612.66692,N,02009.40658,E,1,12,0.68,90.9,M,37.6,M,,*78
$GNRMC,081505.70,A,4612.66692,N,02009.40657,E,0.022,,190819,,,A*6F
$GNVTG,,T,,M,0.022,N,0.041,K,A*38
$GNGGA,081505.70,4612.66692,N,02009.40657,E,1,12,0.68,90.9,M,37.6,M,,*74
$GNRMC,081506.00,A,4612.66692,N,02009.40656,E,0.056,,190819,,,A*69
$GNVTG,,T,,M,0.056,N,0.104,K,A*3B
$GNGGA,081506.00,4612.66692,N,02009.40656,E,1,12,0.68,90.8,M,37.6,M,,*70
$GNRMC,081506.30,A,4612.66691,N,02009.40655,E,0.036,,190819,,,A*6C
$GNVTG,,T,,M,0.036,N,0.066,K,A*38
$GNGGA,081506.30,4612.66691,N,02009.40655,E,1,12,0.68,90.8,M,37.6,M,,*73
$GNRMC,081506.60,A,4612.66690,N,02009.40654,E,0.037,,190819,,,A*68
$GNVTG,,T,,M,0.037,N,0.068,K,A*37
$GNGGA,081506.60,4612.66690,N,02009.40654,E,1,12,0.68,90.8,M,37.6,M,,*76
$GNRMC,081506.90,A,4612.66690,N,02009.40654,E,0.014,,190819,,,A*66
$GNVTG,,T,,M,0.014,N,0.026,K,A*3C
$GNGGA,081506.90,4612.66690,N,02009.40654,E,1,12,0.68,90.8,M,37.6,M,,*79
$GNRMC,081507.20,A,4612.66690,N,02009.40654,E,0.059,,190819,,,A*65
$GNVTG,,T,,M,0.059,N,0.110,K,A*31
$GNGGA,081507.20,4612.66690,N,02009.40654,E,1,12,0.68,90.7,M,37.6,M,,*7C
$GNRMC,081507.50,A,4612.66688,N,02009.40653,E,0.054,,190819,,,A*61
$GNVTG,,T,,M,0.054,N,0.100,K,A*3D
$GNGGA,081507.50,4612.66688,N,02009.40653,E,1,12,0.68,90.7,M,37.6,M,,*75
$GNRMC,081507.80,A,4612.66688,N,02009.40653,E,0.018,,190819,,,A*64
$GNVTG,,T,,M,0.018,N,0.034,K,A*33
$GNGGA,081507.80,4612.66688,N,02009.40653,E,1,12,0.68,90.7,M,37.6,M,,*78
$GNRMC,081508.10,A,4612.66687,N,02009.40653,E,0.012,,190819,,,A*67
$GNVTG,,T,,M,0.012,N,0.023,K,A*3F
$GNGGA,081508.10,4612.66687,N,02009.40653,E,1,12,0.68,90.7,M,37.6,M,,*71
$GNRMC,081508.40,A,4612.66686,N,02009.40653,E,0.037,,190819,,,A*64
$GNVTG,,T,,M,0.037,N,0.069,K,A*36
$GNGGA,081508.40,4612.66686,N,02009.40653,E,1,12,0.68,90.6,M,37.6,M,,*74
$GNRMC,081508.70,A,4612.66685,N,02009.40653,E,0.052,,190819,,,A*67
$GNVTG,,T,,M,0.052,N,0.097,K,A*34
$GNGGA,081508.70,4612.66685,N,02009.40653,E,1,12,0.68,90.6,M,37.6,M,,*74
$GNRMC,081509.00,A,4612.66684,N,02009.40652,E,0.029,,190819,,,A*6D
$GNVTG,,T,,M,0.029,N,0.054,K,A*37
$GNGGA,081509.00,4612.66684,N,02009.40652,E,1,12,0.68,90.6,M,37.6,M,,*72
$GNRMC,081509.30,A,4612.66684,N,02009.40652,E,0.004,,190819,,,A*61
$GNVTG,,T,,M,0.004,N,0.008,K,A*31
$GNGGA,081509.30,4612.66684,N,02009.40652,E,1,12,0.68,90.6,M,37.6,M,,*71
$GNRMC,081509.60,A,4612.66684,N,02009.40652,E,0.032,,190819,,,A*61
$GNVTG,,T,,M,0.032,N,0.060,K,A*3A
$GNGGA,081509.60,4612.66684,N,02009.40652,E,1,12,0.68,90.5,M,37.6,M,,*77
$GNRMC,081509.90,A,4612.66683,N,02009.40652,E,0.024,,190819,,,A*6E
$GNVTG,,T,,M,0.024,N,0.044,K,A*3B
$GNGGA,081509.90,4612.66683,N,02009.40652,E,1,12,0.68,90.5,M,37.6,M,,*7F
$GNRMC,081510.20,A,4612.66683,N,02009.40651,E,0.040,,190819,,,A*6C
$GNVTG,,T,,M,0.040,N,0.074,K,A*3A
$GNGGA,081510.20,4612.66683,N,02009.40651,E,1,12,0.68,90.5,M,37.6,M,,*7F
$GNRMC,081510.50,A,4612.66682,N,02009.40651,E,0.024,,190819,,,A*68
$GNVTG,,T,,M,0.024,N,0.045,K,A*3A
$GNGGA,081510.50,4612.66682,N,02009.40651,E,1,12,0.68,90.5,M,37.6,M,,*79
$GNRMC,081510.80,A,4612.66682,N,02009.40652,E,0.009,,190819,,,A*69
$GNVTG,,T,,M,0.009,N,0.018,K,A*3D
$GNGGA,081510.80,4612.66682,N,02009.40652,E,1,12,0.68,90.4,M,37.6,M,,*76
$GNRMC,081511.10,A,4612.66682,N,02009.40652,E,0.015,,190819,,,A*6C
$GNVTG,,T,,M,0.015,N,0.028,K,A*33
$GNGGA,081511.10,4612.66682,N,02009.40652,E,1,12,0.68,90.4,M,37.6,M,,*7E
$GNRMC,081511.40,A,4612.66681,N,02009.40652,E,0.027,,190819,,,A*6B
$GNVTG,,T,,M,0.027,N,0.050,K,A*3D
$GNGGA,081511.40,4612.66681,N,02009.40652,E,1,12,0.68,90.4,M,37.6,M,,*78
$GNRMC,081511.70,A,4612.66680,N,02009.40652,E,0.029,,190819,,,A*67
$GNVTG,,T,,M,0.029,N,0.054,K,A*37
$GNGGA,081511.70,4612.66680,N,02009.40652,E,1,12,0.68,90.4,M,37.6,M,,*7A
$GNRMC,081512.00,A,4612.66679,N,02009.40652,E,0.027,,190819,,,A*6B
$GNVTG,,T,,M,0.027,N,0.050,K,A*3D
$GNGGA,081512.00,4612.66679,N,02009.40652,E,1,12,0.68,90.3,M,37.6,M,,*7F
$GNRMC,081512.30,A,4612.66679,N,02009.40652,E,0.030,,190819,,,A*6E
$GNVTG,,T,,M,0.030,N,0.056,K,A*3D
$GNGGA,081512.30,4612.66679,N,02009.40652,E,1,12,0.68,90.3,M,37.6,M,,*7C
$GNRMC,081512.60,A,4612.66679,N,02009.40651,E,0.012,,190819,,,A*68
$GNVTG,,T,,M,0.012,N,0.023,K,A*3F
$GNGGA,081512.60,4612.66679,N,02009.40651,E,1,12,0.68,90.3,M,37.6,M,,*7A
$GNRMC,081512.90,A,4612.66678,N,02009.40651,E,0.017,,190819,,,A*63
$GNVTG,,T,,M,0.017,N,0.031,K,A*39
$GNGGA,081512.90,4612.66678,N,02009.40651,E,1,12,0.68,90.3,M,37.6,M,,*74
$GNRMC,081513.20,A,4612.66678,N,02009.40652,E,0.040,,190819,,,A*68
$GNVTG,,T,,M,0.040,N,0.074,K,A*3A
$GNGGA,081513.20,4612.66678,N,02009.40652,E,1,12,0.68,90.3,M,37.6,M,,*7D
$GNRMC,081513.50,A,4612.66679,N,02009.40652,E,0.034,,190819,,,A*6D
$GNVTG,,T,,M,0.034,N,0.063,K,A*3F
$GNGGA,081513.50,4612.66679,N,02009.40652,E,1,12,0.68,90.3,M,37.6,M,,*7B
$GNRMC,081513.80,A,4612.66680,N,02009.40653,E,0.124,,190819,,,A*67
$GNVTG,,T,,M,0.124,N,0.230,K,A*3B
$GNGGA,081513.80,4612.66680,N,02009.40653,E,1,12,0.68,90.3,M,37.6,M,,*71
$GNRMC,081514.10,A,4612.66683,N,02009.40652,E,0.200,,190819,,,A*6E
$GNVTG,,T,,M,0.200,N,0.370,K,A*3B
$GNGGA,081514.10,4612.66683,N,02009.40652,E,1,12,0.68,90.4,M,37.6,M,,*7A
$GNRMC,081514.40,A,4612.66683,N,02009.40653,E,0.071,,190819,,,A*6E
$GNVTG,,T,,M,0.071,N,0.132,K,A*3B
$GNGGA,081514.40,4612.66683,N,02009.40653,E,1,12,0.68,90.4,M,37.6,M,,*7E
$GNRMC,081514.70,A,4612.66683,N,02009.40652,E,0.077,,190819,,,A*6A
$GNVTG,,T,,M,0.077,N,0.143,K,A*3B
$GNGGA,081514.70,4612.66683,N,02009.40652,E,1,12,0.68,90.4,M,37.6,M,,*7C
$GNRMC,081515.00,A,4612.66685,N,02009.40652,E,0.065,,190819,,,A*69
$GNVTG,,T,,M,0.065,N,0.120,K,A*3D
$GNGGA,081515.00,4612.66685,N,02009.40652,E,1,12,0.68,90.4,M,37.6,M,,*7C
$GNRMC,081515.30,A,4612.66686,N,02009.40652,E,0.025,,190819,,,A*6D
$GNVTG,,T,,M,0.025,N,0.046,K,A*38
$GNGGA,081515.30,4612.66686,N,02009.40652,E,1,12,0.68,90.3,M,37.6,M,,*7B
$GNRMC,081515.60,A,4612.66686,N,02009.40652,E,0.051,,190819,,,A*6B
$GNVTG,,T,,M,0.051,N,0.095,K,A*35
$GNGGA,081515.60,4612.66686,N,02009.40652,E,1,12,0.68,90.3,M,37.6,M,,*7E
$GNRMC,081515.90,A,4612.66686,N,02009.40652,E,0.061,,190819,,,A*67
$GNVTG,,T,,M,0.061,N,0.113,K,A*39
$GNGGA,081515.90,4612.66686,N,02009.40652,E,1,12,0.68,90.4,M,37.6,M,,*76
$GNRMC,081516.20,A,4612.66686,N,02009.40652,E,0.034,,190819,,,A*6F
$GNVTG,,T,,M,0.034,N,0.063,K,A*3F
$GNGGA,081516.20,4612.66686,N,02009.40652,E,1,12,0.68,90.4,M,37.6,M,,*7E
$GNRMC,081516.50,A,4612.66686,N,02009.40653,E,0.026,,190819,,,A*6A
$GNVTG,,T,,M,0.026,N,0.049,K,A*34
$GNGGA,081516.50,4612.66686,N,02009.40653,E,1,12,0.68,90.4,M,37.6,M,,*78
$GNRMC,081516.80,A,4612.66687,N,02009.40653,E,0.039,,190819,,,A*68
$GNVTG,,T,,M,0.039,N,0.073,K,A*33
$GNGGA,081516.80,4612.66687,N,02009.40653,E,1,12,0.68,90.4,M,37.6,M,,*74
$GNRMC,081517.10,A,4612.66687,N,02009.40652,E,0.014,,190819,,,A*6E
$GNVTG,,T,,M,0.014,N,0.026,K,A*3C
$GNGGA,081517.10,4612.66687,N,02009.40652,E,1,12,0.68,90.4,M,37.6,M,,*7D
$GNRMC,081517.40,A,4612.66687,N,02009.40653,E,0.038,,190819,,,A*64
$GNVTG,,T,,M,0.038,N,0.070,K,A*31
$GNGGA,081517.40,4612.66687,N,02009.40653,E,1,12,0.68,90.4,M,37.6,M,,*79
$GNRMC,081517.70,A,4612.66687,N,02009.40653,E,0.068,,190819,,,A*62
$GNVTG,,T,,M,0.068,N,0.126,K,A*36
$GNGGA,081517.70,4612.66687,N,02009.40653,E,1,12,0.68,90.4,M,37.6,M,,*7A
$GNRMC,081518.00,A,4612.66687,N,02009.40652,E,0.065,,190819,,,A*66
$GNVTG,,T,,M,0.065,N,0.121,K,A*3C
$GNGGA,081518.00,4612.66687,N,02009.40652,E,1,12,0.68,90.4,M,37.6,M,,*73
$GNRMC,081518.30,A,4612.66687,N,02009.40652,E,0.043,,190819,,,A*61
$GNVTG,,T,,M,0.043,N,0.079,K,A*34
$GNGGA,081518.30,4612.66687,N,02009.40652,E,1,12,0.68,90.4,M,37.6,M,,*70
$GNRMC,081518.60,A,4612.66688,N,02009.40652,E,0.039,,190819,,,A*66
$GNVTG,,T,,M,0.039,N,0.072,K,A*32
$GNGGA,081518.60,4612.66688,N,02009.40652,E,1,12,0.68,90.4,M,37.6,M,,*7A
$GNRMC,081518.90,A,4612.66688,N,02009.40653,E,0.032,,190819,,,A*63
$GNVTG,,T,,M,0.032,N,0.060,K,A*3A
$GNGGA,081518.90,4612.66688,N,02009.40653,E,1,12,0.68,90.4,M,37.6,M,,*74
$GNRMC,081519.20,A,4612.66688,N,02009.40653,E,0.030,,190819,,,A*6B
$GNVTG,,T,,M,0.030,N,0.055,K,A*3E
$GNGGA,081519.20,4612.66688,N,02009.40653,E,1,12,0.68,90.4,M,37.6,M,,*7E
$GNRMC,081519.50,A,4612.66688,N,02009.40654,E,0.013,,190819,,,A*6A
$GNVTG,,T,,M,0.013,N,0.024,K,A*39
$GNGGA,081519.50,4612.66688,N,02009.40654,E,1,12,0.68,90.5,M,37.6,M,,*7F
$GNRMC,081519.80,A,4612.66688,N,02009.40654,E,0.035,,190819,,,A*63
$GNVTG,,T,,M,0.035,N,0.064,K,A*39
$GNGGA,081519.80,4612.66688,N,02009.40654,E,1,12,0.68,90.4,M,37.6,M,,*73
$GNRMC,081520.10,A,4612.66687,N,02009.40653,E,0.018,,190819,,,A*67
$GNVTG,,T,,M,0.018,N,0.033,K,A*34
$GNGGA,081520.10,4612.66687,N,02009.40653,E,1,12,0.68,90.4,M,37.6,M,,*78
$GNRMC,081520.40,A,4612.66687,N,02009.40653,E,0.052,,190819,,,A*6C
$GNVTG,,T,,M,0.052,N,0.097,K,A*34
$GNGGA,081520.40,4612.66687,N,02009.40653,E,1,12,0.68,90.4,M,37.6,M,,*7D
$GNRMC,081520.70,A,4612.66687,N,02009.40653,E,0.017,,190819,,,A*6E
$GNVTG,,T,,M,0.017,N,0.031,K,A*39
$GNGGA,081520.70,4612.66687,N,02009.40653,E,1,12,0.68,90.4,M,37.6,M,,*7E
$GNRMC,081521.00,A,4612.66688,N,02009.40654,E,0.003,,190819,,,A*65
$GNVTG,,T,,M,0.003,N,0.006,K,A*38
$GNGGA,081521.00,4612.66688,N,02009.40654,E,1,12,0.68,90.4,M,37.6,M,,*70
$GNRMC,081521.30,A,4612.66688,N,02009.40654,E,0.040,,190819,,,A*61
$GNVTG,,T,,M,0.040,N,0.074,K,A*3A
$GNGGA,081521.30,4612.66688,N,02009.40654,E,1,12,0.68,90.4,M,37.6,M,,*73
$GNRMC,081521.60,A,4612.66688,N,02009.40655,E,0.050,,190819,,,A*64
$GNVTG,,T,,M,0.050,N,0.092,K,A*33
$GNGGA,081521.60,4612.66688,N,02009.40655,E,1,12,0.68,90.5,M,37.6,M,,*76
$GNRMC,081521.90,A,4612.66689,N,02009.40655,E,0.057,,190819,,,A*6D
$GNVTG,,T,,M,0.057,N,0.106,K,A*38
$GNGGA,081521.90,4612.66689,N,02009.40655,E,1,12,0.68,90.5,M,37.6,M,,*78
$GNRMC,081522.20,A,4612.66690,N,02009.40654,E,0.007,,190819,,,A*69
$GNVTG,,T,,M,0.007,N,0.012,K,A*39
$GNGGA,081522.20,4612.66690,N,02009.40654,E,1,12,0.68,90.5,M,37.6,M,,*79
$GNRMC,081522.50,A,4612.66691,N,02009.40653,E,0.069,,190819,,,A*60
$GNVTG,,T,,M,0.069,N,0.128,K,A*39
$GNGGA,081522.50,4612.66691,N,02009.40653,E,1,12,0.68,90.5,M,37.6,M,,*78
$GNRMC,081522.80,A,4612.66692,N,02009.40653,E,0.007,,190819,,,A*66
$GNVTG,,T,,M,0.007,N,0.013,K,A*38
$GNGGA,081522.80,4612.66692,N,02009.40653,E,1,12,0.68,90.6,M,37.6,M,,*75
$GNRMC,081523.10,A,4612.66692,N,02009.40654,E,0.006,,190819,,,A*68
$GNVTG,,T,,M,0.006,N,0.011,K,A*3B
$GNGGA,081523.10,4612.66692,N,02009.40654,E,1,12,0.68,90.6,M,37.6,M,,*7A
$GNRMC,081523.40,A,4612.66692,N,02009.40654,E,0.073,,190819,,,A*6F
$GNVTG,,T,,M,0.073,N,0.135,K,A*3E
$GNGGA,081523.40,4612.66692,N,02009.40654,E,1,12,0.68,90.6,M,37.6,M,,*7F
$GNRMC,081523.70,A,4612.66693,N,02009.40655,E,0.069,,190819,,,A*67
$GNVTG,,T,,M,0.069,N,0.128,K,A*39
$GNGGA,081523.70,4612.66693,N,02009.40655,E,1,12,0.68,90.6,M,37.6,M,,*7C
$GNRMC,081524.00,A,4612.66693,N,02009.40654,E,0.047,,190819,,,A*6A
$GNVTG,,T,,M,0.047,N,0.088,K,A*3E
$GNGGA,081524.00,4612.66693,N,02009.40654,E,1,12,0.68,90.6,M,37.6,M,,*7D
$GNRMC,081524.30,A,4612.66693,N,02009.40654,E,0.050,,190819,,,A*6F
$GNVTG,,T,,M,0.050,N,0.092,K,A*33
$GNGGA,081524.30,4612.66693,N,02009.40654,E,1,12,0.68,90.6,M,37.6,M,,*7E
$GNRMC,081524.60,A,4612.66692,N,02009.40654,E,0.042,,190819,,,A*68
$GNVTG,,T,,M,0.042,N,0.078,K,A*34
$GNGGA,081524.60,4612.66692,N,02009.40654,E,1,12,0.68,90.6,M,37.6,M,,*7A
$GNRMC,081524.90,A,4612.66692,N,02009.40654,E,0.018,,190819,,,A*68
$GNVTG,,T,,M,0.018,N,0.034,K,A*33
$GNGGA,081524.90,4612.66692,N,02009.40654,E,1,12,0.68,90.6,M,37.6,M,,*75
$GNRMC,081525.20,A,4612.66693,N,02009.40654,E,0.066,,190819,,,A*6A
$GNVTG,,T,,M,0.066,N,0.122,K,A*3C
$GNGGA,081525.20,4612.66693,N,02009.40654,E,1,12,0.68,90.6,M,37.6,M,,*7E
$GNRMC,081525.50,A,4612.66693,N,02009.40653,E,0.040,,190819,,,A*6E
$GNVTG,,T,,M,0.040,N,0.074,K,A*3A
$GNGGA,081525.50,4612.66693,N,02009.40653,E,1,12,0.68,90.5,M,37.6,M,,*7D
$GNRMC,081525.80,A,4612.66692,N,02009.40653,E,0.028,,190819,,,A*6C
$GNVTG,,T,,M,0.028,N,0.053,K,A*31
$GNGGA,081525.80,4612.66692,N,02009.40653,E,1,12,0.68,90.6,M,37.6,M,,*72
$GNRMC,081526.10,A,4612.66692,N,02009.40653,E,0.017,,190819,,,A*6A
$GNVTG,,T,,M,0.017,N,0.032,K,A*3A
$GNGGA,081526.10,4612.66692,N,02009.40653,E,1,12,0.68,90.5,M,37.6,M,,*7B
$GNRMC,081526.40,A,4612.66692,N,02009.40653,E,0.045,,190819,,,A*68
$GNVTG,,T,,M,0.045,N,0.083,K,A*37
$GNGGA,081526.40,4612.66692,N,02009.40653,E,1,12,0.68,90.5,M,37.6,M,,*7E
$GNRMC,081526.70,A,4612.66692,N,02009.40652,E,0.044,,190819,,,A*6B
$GNVTG,,T,,M,0.044,N,0.082,K,A*37
$GNGGA,081526.70,4612.66692,N,02009.40652,E,1,12,0.68,90.5,M,37.6,M,,*7C
$GNRMC,081527.00,A,4612.66692,N,02009.40652,E,0.004,,190819,,,A*69
$GNVTG,,T,,M,0.004,N,0.007,K,A*3E
$GNGGA,081527.00,4612.66692,N,02009.40652,E,1,12,0.68,90.5,M,37.6,M,,*7A
$GNRMC,081527.30,A,4612.66692,N,02009.40652,E,0.009,,190819,,,A*67
$GNVTG,,T,,M,0.009,N,0.016,K,A*33
$GNGGA,081527.30,4612.66692,N,02009.40652,E,1,12,0.68,90.5,M,37.6,M,,*79
$GNRMC,081527.60,A,4612.66692,N,02009.40651,E,0.021,,190819,,,A*6B
$GNVTG,,T,,M,0.021,N,0.040,K,A*3A
$GNGGA,081527.60,4612.66692,N,02009.40651,E,1,12,0.68,90.5,M,37.6,M,,*7F
$GNRMC,081527.90,A,4612.66692,N,02009.40650,E,0.028,,190819,,,A*6C
$GNVTG,,T,,M,0.028,N,0.052,K,A*30
$GNGGA,081527.90,4612.66692,N,02009.40650,E,1,12,0.68,90.4,M,37.6,M,,*70
$GNRMC,081528.20,A,4612.66692,N,02009.40651,E,0.029,,190819,,,A*68
$GNVTG,,T,,M,0.029,N,0.053,K,A*30
$GNGGA,081528.20,4612.66692,N,02009.40651,E,1,12,0.68,90.5,M,37.6,M,,*74
$GNRMC,081528.50,A,4612.66692,N,02009.40650,E,0.043,,190819,,,A*62
$GNVTG,,T,,M,0.043,N,0.080,K,A*32
$GNGGA,081528.50,4612.66692,N,02009.40650,E,1,12,0.68,90.4,M,37.6,M,,*73
$GNRMC,081528.80,A,4612.66692,N,02009.40649,E,0.011,,190819,,,A*60
$GNVTG,,T,,M,0.011,N,0.021,K,A*3E
$GNGGA,081528.80,4612.66692,N,02009.40649,E,1,12,0.68,90.4,M,37.6,M,,*76
$GNRMC,081529.10,A,4612.66692,N,02009.40649,E,0.012,,190819,,,A*6B
$GNVTG,,T,,M,0.012,N,0.022,K,A*3E
$GNGGA,081529.10,4612.66692,N,02009.40649,E,1,12,0.68,90.4,M,37.6,M,,*7E
$GNRMC,081529.40,A,4612.66692,N,02009.40649,E,0.026,,190819,,,A*69
$GNVTG,,T,,M,0.026,N,0.048,K,A*35
$GNGGA,081529.40,4612.66692,N,02009.40649,E,1,12,0.68,90.4,M,37.6,M,,*7B
$GNRMC,081529.70,A,4612.66693,N,02009.40648,E,0.057,,190819,,,A*6C
$GNVTG,,T,,M,0.057,N,0.106,K,A*38
$GNGGA,081529.70,4612.66693,N,02009.40648,E,1,12,0.68,90.4,M,37.6,M,,*78
$GNRMC,081530.00,A,4612.66692,N,02009.40648,E,0.063,,190819,,,A*65
$GNVTG,,T,,M,0.063,N,0.116,K,A*3E
$GNGGA,081530.00,4612.66692,N,02009.40648,E,1,12,0.68,90.3,M,37.6,M,,*71
$GNRMC,081530.30,A,4612.66692,N,02009.40648,E,0.049,,190819,,,A*6E
$GNVTG,,T,,M,0.049,N,0.090,K,A*39
$GNGGA,081530.30,4612.66692,N,02009.40648,E,1,12,0.68,90.3,M,37.6,M,,*72
$GNRMC,081530.60,A,4612.66692,N,02009.40647,E,0.025,,190819,,,A*6E
$GNVTG,,T,,M,0.025,N,0.046,K,A*38
$GNGGA,081530.60,4612.66692,N,02009.40647,E,1,12,0.68,90.3,M,37.6,M,,*78
$GNRMC,081530.90,A,4612.66692,N,02009.40647,E,0.051,,190819,,,A*62
$GNVTG,,T,,M,0.051,N,0.095,K,A*35
$GNGGA,081530.90,4612.66692,N,02009.40647,E,1,12,0.68,90.3,M,37.6,M,,*77
$GNRMC,081531.20,A,4612.66692,N,02009.40647,E,0.036,,190819,,,A*69
$GNVTG,,T,,M,0.036,N,0.066,K,A*38
$GNGGA,081531.20,4612.66692,N,02009.40647,E,1,12,0.68,90.3,M,37.6,M,,*7D
$GNRMC,081531.50,A,4612.66691,N,02009.40647,E,0.038,,190819,,,A*63
$GNVTG,,T,,M,0.038,N,0.070,K,A*31
$GNGGA,081531.50,4612.66691,N,02009.40647,E,1,12,0.68,90.2,M,37.6,M,,*78
$GNRMC,081531.80,A,4612.66691,N,02009.40647,E,0.008,,190819,,,A*6D
$GNVTG,,T,,M,0.008,N,0.015,K,A*31
$GNGGA,081531.80,4612.66691,N,02009.40647,E,1,12,0.68,90.2,M,37.6,M,,*75
$GNRMC,081532.10,A,4612.66691,N,02009.40647,E,0.012,,190819,,,A*6C
$GNVTG,,T,,M,0.012,N,0.023,K,A*3F
$GNGGA,081532.10,4612.66691,N,02009.40647,E,1,12,0.68,90.2,M,37.6,M,,*7F
$GNRMC,081532.40,A,4612.66691,N,02009.40646,E,0.070,,190819,,,A*6C
$GNVTG,,T,,M,0.070,N,0.130,K,A*38
$GNGGA,081532.40,4612.66691,N,02009.40646,E,1,12,0.68,90.2,M,37.6,M,,*7B
$GNRMC,081532.70,A,4612.66690,N,02009.40647,E,0.032,,190819,,,A*69
$GNVTG,,T,,M,0.032,N,0.060,K,A*3A
$GNGGA,081532.70,4612.66690,N,02009.40647,E,1,12,0.68,90.2,M,37.6,M,,*78
$GNRMC,081533.00,A,4612.66690,N,02009.40647,E,0.023,,190819,,,A*6F
$GNVTG,,T,,M,0.023,N,0.042,K,A*3A
$GNGGA,081533.00,4612.66690,N,02009.40647,E,1,12,0.68,90.2,M,37.6,M,,*7E
$GNRMC,081533.30,A,4612.66689,N,02009.40647,E,0.058,,190819,,,A*68
$GNVTG,,T,,M,0.058,N,0.108,K,A*39
$GNGGA,081533.30,4612.66689,N,02009.40647,E,1,12,0.68,90.2,M,37.6,M,,*75
$GNRMC,081533.60,A,4612.66689,N,02009.40647,E,0.054,,190819,,,A*61
$GNVTG,,T,,M,0.054,N,0.100,K,A*3D
$GNGGA,081533.60,4612.66689,N,02009.40647,E,1,12,0.68,90.1,M,37.6,M,,*73
$GNRMC,081533.90,A,4612.66688,N,02009.40648,E,0.042,,190819,,,A*67
$GNVTG,,T,,M,0.042,N,0.078,K,A*34
$GNGGA,081533.90,4612.66688,N,02009.40648,E,1,12,0.68,90.1,M,37.6,M,,*72
$GNRMC,081534.20,A,4612.66687,N,02009.40648,E,0.075,,190819,,,A*60
$GNVTG,,T,,M,0.075,N,0.139,K,A*34
$GNGGA,081534.20,4612.66687,N,02009.40648,E,1,12,0.68,90.1,M,37.6,M,,*71
$GNRMC,081534.50,A,4612.66687,N,02009.40648,E,0.027,,190819,,,A*60
$GNVTG,,T,,M,0.027,N,0.050,K,A*3D
$GNGGA,081534.50,4612.66687,N,02009.40648,E,1,12,0.68,90.1,M,37.6,M,,*76
$GNRMC,081534.80,A,4612.66687,N,02009.40647,E,0.012,,190819,,,A*64
$GNVTG,,T,,M,0.012,N,0.023,K,A*3F
$GNGGA,081534.80,4612.66687,N,02009.40647,E,1,12,0.68,90.1,M,37.6,M,,*74
$GNRMC,081535.10,A,4612.66687,N,02009.40647,E,0.017,,190819,,,A*69
$GNVTG,,T,,M,0.017,N,0.031,K,A*39
$GNGGA,081535.10,4612.66687,N,02009.40647,E,1,12,0.68,90.1,M,37.6,M,,*7C
$GNRMC,081535.40,A,4612.66686,N,02009.40647,E,0.050,,190819,,,A*6E
$GNVTG,,T,,M,0.050,N,0.092,K,A*33
$GNGGA,081535.40,4612.66686,N,02009.40647,E,1,12,0.68,90.1,M,37.6,M,,*78
$GNRMC,081535.70,A,4612.66685,N,02009.40647,E,0.034,,190819,,,A*6C
$GNVTG,,T,,M,0.034,N,0.063,K,A*3F
$GNGGA,081535.70,4612.66685,N,02009.40647,E,1,12,0.68,90.1,M,37.6,M,,*78
$GNRMC,081536.00,A,4612.66685,N,02009.40646,E,0.016,,190819,,,A*69
$GNVTG,,T,,M,0.016,N,0.029,K,A*31
$GNGGA,081536.00,4612.66685,N,02009.40646,E,1,12,0.68,90.1,M,37.6,M,,*7D
$GNRMC,081536.30,A,4612.66684,N,02009.40645,E,0.031,,190819,,,A*6D
$GNVTG,,T,,M,0.031,N,0.058,K,A*32
$GNGGA,081536.30,4612.66684,N,02009.40645,E,1,12,0.68,90.0,M,37.6,M,,*7D
$GNRMC,081536.60,A,4612.66684,N,02009.40646,E,0.068,,190819,,,A*67
$GNVTG,,T,,M,0.068,N,0.127,K,A*37
$GNGGA,081536.60,4612.66684,N,02009.40646,E,1,12,0.68,90.0,M,37.6,M,,*7B
$GNRMC,081536.90,A,4612.66683,N,02009.40645,E,0.071,,190819,,,A*64
$GNVTG,,T,,M,0.071,N,0.132,K,A*3B
$GNGGA,081536.90,4612.66683,N,02009.40645,E,1,12,0.68,90.0,M,37.6,M,,*70
$GNRMC,081537.20,A,4612.66683,N,02009.40645,E,0.055,,190819,,,A*68
$GNVTG,,T,,M,0.055,N,0.103,K,A*3F
$GNGGA,081537.20,4612.66683,N,02009.40645,E,1,12,0.68,90.0,M,37.6,M,,*7A
$GNRMC,081537.50,A,4612.66683,N,02009.40645,E,0.015,,190819,,,A*6B
$GNVTG,,T,,M,0.015,N,0.027,K,A*3C
$GNGGA,081537.50,4612.66683,N,02009.40645,E,1,12,0.68,90.0,M,37.6,M,,*7D
$GNRMC,081537.80,A,4612.66683,N,02009.40645,E,0.036,,190819,,,A*67
$GNVTG,,T,,M,0.036,N,0.067,K,A*39
$GNGGA,081537.80,4612.66683,N,02009.40645,E,1,12,0.68,90.0,M,37.6,M,,*70
$GNRMC,081538.10,A,4612.66682,N,02009.40644,E,0.066,,190819,,,A*64
$GNVTG,,T,,M,0.066,N,0.123,K,A*3D
$GNGGA,081538.10,4612.66682,N,02009.40644,E,1,12,0.68,90.0,M,37.6,M,,*76
$GNRMC,081538.40,A,4612.66682,N,02009.40643,E,0.021,,190819,,,A*65
$GNVTG,,T,,M,0.021,N,0.039,K,A*34
$GNGGA,081538.40,4612.66682,N,02009.40643,E,1,12,0.68,89.9,M,37.6,M,,*75
$GNRMC,081538.70,A,4612.66683,N,02009.40643,E,0.003,,190819,,,A*67
$GNVTG,,T,,M,0.003,N,0.005,K,A*3B
$GNGGA,081538.70,4612.66683,N,02009.40643,E,1,12,0.68,89.9,M,37.6,M,,*77
$GNRMC,081539.00,A,4612.66681,N,02009.40643,E,0.078,,190819,,,A*6F
$GNVTG,,T,,M,0.078,N,0.144,K,A*33
$GNGGA,081539.00,4612.66681,N,02009.40643,E,1,12,0.68,89.9,M,37.6,M,,*73
$GNRMC,081539.30,A,4612.66681,N,02009.40641,E,0.084,,190819,,,A*6D
$GNVTG,,T,,M,0.084,N,0.155,K,A*30
$GNGGA,081539.30,4612.66681,N,02009.40641,E,1,12,0.68,89.9,M,37.6,M,,*72
$GNRMC,081539.60,A,4612.66681,N,02009.40641,E,0.010,,190819,,,A*65
$GNVTG,,T,,M,0.010,N,0.018,K,A*35
$GNGGA,081539.60,4612.66681,N,02009.40641,E,1,12,0.68,89.8,M,37.6,M,,*76
$GNRMC,081539.90,A,4612.66681,N,02009.40641,E,0.031,,190819,,,A*69
$GNVTG,,T,,M,0.031,N,0.057,K,A*3D
$GNGGA,081539.90,4612.66681,N,02009.40641,E,1,12,0.68,89.8,M,37.6,M,,*79
$GNRMC,081540.20,A,4612.66682,N,02009.40641,E,0.064,,190819,,,A*6F
$GNVTG,,T,,M,0.064,N,0.119,K,A*36
$GNGGA,081540.20,4612.66682,N,02009.40641,E,1,12,0.68,89.8,M,37.6,M,,*7F
$GNRMC,081540.50,A,4612.66681,N,02009.40640,E,0.049,,190819,,,A*65
$GNVTG,,T,,M,0.049,N,0.091,K,A*38
$GNGGA,081540.50,4612.66681,N,02009.40640,E,1,12,0.68,89.7,M,37.6,M,,*75
$GNRMC,081540.80,A,4612.66682,N,02009.40640,E,0.041,,190819,,,A*63
$GNVTG,,T,,M,0.041,N,0.075,K,A*3A
$GNGGA,081540.80,4612.66682,N,02009.40640,E,1,12,0.68,89.7,M,37.6,M,,*7B
$GNRMC,081541.10,A,4612.66681,N,02009.40640,E,0.020,,190819,,,A*6F
$GNVTG,,T,,M,0.020,N,0.036,K,A*3A
$GNGGA,081541.10,4612.66681,N,02009.40640,E,1,12,0.68,89.7,M,37.6,M,,*70
$GNRMC,081541.40,A,4612.66681,N,02009.40640,E,0.016,,190819,,,A*6F
$GNVTG,,T,,M,0.016,N,0.029,K,A*31
$GNGGA,081541.40,4612.66681,N,02009.40640,E,1,12,0.68,89.7,M,37.6,M,,*75
$GNRMC,081541.70,A,4612.66680,N,02009.40639,E,0.032,,190819,,,A*65
$GNVTG,,T,,M,0.032,N,0.058,K,A*31
$GNGGA,081541.70,4612.66680,N,02009.40639,E,1,12,0.68,89.6,M,37.6,M,,*78
$GNRMC,081542.00,A,4612.66680,N,02009.40639,E,0.036,,190819,,,A*65
$GNVTG,,T,,M,0.036,N,0.067,K,A*39
$GNGGA,081542.00,4612.66680,N,02009.40639,E,1,12,0.68,89.7,M,37.6,M,,*7D
$GNRMC,081542.30,A,4612.66680,N,02009.40640,E,0.074,,190819,,,A*6E
$GNVTG,,T,,M,0.074,N,0.137,K,A*3B
$GNGGA,081542.30,4612.66680,N,02009.40640,E,1,12,0.68,89.7,M,37.6,M,,*70
$GNRMC,081542.60,A,4612.66680,N,02009.40640,E,0.048,,190819,,,A*64
$GNVTG,,T,,M,0.048,N,0.089,K,A*30
$GNGGA,081542.60,4612.66680,N,02009.40640,E,1,12,0.68,89.7,M,37.6,M,,*75
$GNRMC,081542.90,A,4612.66679,N,02009.40640,E,0.055,,190819,,,A*61
$GNVTG,,T,,M,0.055,N,0.102,K,A*3E
$GNGGA,081542.90,4612.66679,N,02009.40640,E,1,12,0.68,89.7,M,37.6,M,,*7C
$GNRMC,081543.20,A,4612.66680,N,02009.40640,E,0.023,,190819,,,A*6C
$GNVTG,,T,,M,0.023,N,0.042,K,A*3A
$GNGGA,081543.20,4612.66680,N,02009.40640,E,1,12,0.68,89.6,M,37.6,M,,*71
$GNRMC,081543.50,A,4612.66681,N,02009.40640,E,0.043,,190819,,,A*6C
$GNVTG,,T,,M,0.043,N,0.079,K,A*34
$GNGGA,081543.50,4612.66681,N,02009.40640,E,1,12,0.68,89.6,M,37.6,M,,*77
$GNRMC,081543.80,A,4612.66682,N,02009.40640,E,0.097,,190819,,,A*6B
$GNVTG,,T,,M,0.097,N,0.180,K,A*3A
$GNGGA,081543.80,4612.66682,N,02009.40640,E,1,12,0.68,89.6,M,37.6,M,,*79
$GNRMC,081544.10,A,4612.66683,N,02009.40640,E,0.075,,190819,,,A*68
$GNVTG,,T,,M,0.075,N,0.138,K,A*35
$GNGGA,081544.10,4612.66683,N,02009.40640,E,1,12,0.68,89.5,M,37.6,M,,*75
$GNRMC,081544.40,A,4612.66682,N,02009.40640,E,0.079,,190819,,,A*60
$GNVTG,,T,,M,0.079,N,0.147,K,A*31
$GNGGA,081544.40,4612.66682,N,02009.40640,E,1,12,0.68,89.6,M,37.6,M,,*72
$GNRMC,081544.70,A,4612.66683,N,02009.40640,E,0.045,,190819,,,A*6D
$GNVTG,,T,,M,0.045,N,0.083,K,A*37
$GNGGA,081544.70,4612.66683,N,02009.40640,E,1,12,0.68,89.6,M,37.6,M,,*70
$GNRMC,081545.00,A,4612.66683,N,02009.40640,E,0.016,,190819,,,A*6D
$GNVTG,,T,,M,0.016,N,0.029,K,A*31
$GNGGA,081545.00,4612.66683,N,02009.40640,E,1,12,0.68,89.5,M,37.6,M,,*75
$GNRMC,081545.30,A,4612.66684,N,02009.40641,E,0.076,,190819,,,A*6E
$GNVTG,,T,,M,0.076,N,0.141,K,A*38
$GNGGA,081545.30,4612.66684,N,02009.40641,E,1,12,0.68,89.5,M,37.6,M,,*70
$GNRMC,081545.60,A,4612.66685,N,02009.40641,E,0.018,,190819,,,A*62
$GNVTG,,T,,M,0.018,N,0.033,K,A*34
$GNGGA,081545.60,4612.66685,N,02009.40641,E,1,12,0.68,89.5,M,37.6,M,,*74
$GNRMC,081545.90,A,4612.66685,N,02009.40641,E,0.074,,190819,,,A*67
$GNVTG,,T,,M,0.074,N,0.137,K,A*3B
$GNGGA,081545.90,4612.66685,N,02009.40641,E,1,12,0.68,89.5,M,37.6,M,,*7B
$GNRMC,081546.20,A,4612.66686,N,02009.40641,E,0.011,,190819,,,A*6F
$GNVTG,,T,,M,0.011,N,0.020,K,A*3F
$GNGGA,081546.20,4612.66686,N,02009.40641,E,1,12,0.68,89.5,M,37.6,M,,*70
$GNRMC,081546.50,A,4612.66686,N,02009.40641,E,0.027,,190819,,,A*6D
$GNVTG,,T,,M,0.027,N,0.050,K,A*3D
$GNGGA,081546.50,4612.66686,N,02009.40641,E,1,12,0.68,89.6,M,37.6,M,,*74
$GNRMC,081546.80,A,4612.66686,N,02009.40641,E,0.028,,190819,,,A*6F
$GNVTG,,T,,M,0.028,N,0.051,K,A*33
$GNGGA,081546.80,4612.66686,N,02009.40641,E,1,12,0.68,89.5,M,37.6,M,,*7A
$GNRMC,081547.10,A,4612.66687,N,02009.40641,E,0.016,,190819,,,A*6B
$GNVTG,,T,,M,0.016,N,0.029,K,A*31
$GNGGA,081547.10,4612.66687,N,02009.40641,E,1,12,0.68,89.5,M,37.6,M,,*73
$GNRMC,081547.40,A,4612.66687,N,02009.40641,E,0.029,,190819,,,A*62
$GNVTG,,T,,M,0.029,N,0.054,K,A*37
$GNGGA,081547.40,4612.66687,N,02009.40641,E,1,12,0.68,89.5,M,37.6,M,,*76
$GNRMC,081547.70,A,4612.66688,N,02009.40641,E,0.021,,190819,,,A*66
$GNVTG,,T,,M,0.021,N,0.039,K,A*34
$GNGGA,081547.70,4612.66688,N,02009.40641,E,1,12,0.68,89.5,M,37.6,M,,*7A
$GNRMC,081548.00,A,4612.66687,N,02009.40642,E,0.076,,190819,,,A*60
$GNVTG,,T,,M,0.076,N,0.142,K,A*3B
$GNGGA,081548.00,4612.66687,N,02009.40642,E,1,12,0.68,89.5,M,37.6,M,,*7E
$GNRMC,081548.30,A,4612.66687,N,02009.40641,E,0.058,,190819,,,A*6C
$GNVTG,,T,,M,0.058,N,0.108,K,A*39
$GNGGA,081548.30,4612.66687,N,02009.40641,E,1,12,0.68,89.5,M,37.6,M,,*7E
$GNRMC,081548.60,A,4612.66687,N,02009.40641,E,0.019,,190819,,,A*6C
$GNVTG,,T,,M,0.019,N,0.034,K,A*32
$GNGGA,081548.60,4612.66687,N,02009.40641,E,1,12,0.68,89.5,M,37.6,M,,*7B
$GNRMC,081548.90,A,4612.66687,N,02009.40641,E,0.017,,190819,,,A*6D
$GNVTG,,T,,M,0.017,N,0.032,K,A*3A
$GNGGA,081548.90,4612.66687,N,02009.40641,E,1,12,0.68,89.5,M,37.6,M,,*74
$GNRMC,081549.20,A,4612.66688,N,02009.40641,E,0.096,,190819,,,A*61
$GNVTG,,T,,M,0.096,N,0.178,K,A*3C
$GNGGA,081549.20,4612.66688,N,02009.40641,E,1,12,0.68,89.5,M,37.6,M,,*71
$GNRMC,081549.50,A,4612.66687,N,02009.40642,E,0.104,,190819,,,A*60
$GNVTG,,T,,M,0.104,N,0.193,K,A*33
$GNGGA,081549.50,4612.66687,N,02009.40642,E,1,12,0.68,89.5,M,37.6,M,,*7A
$GNRMC,081549.80,A,4612.66688,N,02009.40643,E,0.013,,190819,,,A*64
$GNVTG,,T,,M,0.013,N,0.024,K,A*39
$GNGGA,081549.80,4612.66688,N,02009.40643,E,1,12,0.68,89.6,M,37.6,M,,*7A
$GNRMC,081550.10,A,4612.66689,N,02009.40643,E,0.025,,190819,,,A*61
$GNVTG,,T,,M,0.025,N,0.047,K,A*39
$GNGGA,081550.10,4612.66689,N,02009.40643,E,1,12,0.68,89.6,M,37.6,M,,*7A
$GNRMC,081550.40,A,4612.66689,N,02009.40643,E,0.014,,190819,,,A*66
$GNVTG,,T,,M,0.014,N,0.026,K,A*3C
$GNGGA,081550.40,4612.66689,N,02009.40643,E,1,12,0.68,89.6,M,37.6,M,,*7F
$GNRMC,081550.70,A,4612.66690,N,02009.40642,E,0.048,,190819,,,A*65
$GNVTG,,T,,M,0.048,N,0.088,K,A*31
$GNGGA,081550.70,4612.66690,N,02009.40642,E,1,12,0.68,89.6,M,37.6,M,,*75
$GNRMC,081551.00,A,4612.66691,N,02009.40642,E,0.027,,190819,,,A*6B
$GNVTG,,T,,M,0.027,N,0.051,K,A*3C
$GNGGA,081551.00,4612.66691,N,02009.40642,E,1,12,0.68,89.7,M,37.6,M,,*73
$GNRMC,081551.30,A,4612.66691,N,02009.40642,E,0.010,,190819,,,A*6C
$GNVTG,,T,,M,0.010,N,0.018,K,A*35
$GNGGA,081551.30,4612.66691,N,02009.40642,E,1,12,0.68,89.7,M,37.6,M,,*70
$GNRMC,081551.60,A,4612.66693,N,02009.40642,E,0.018,,190819,,,A*63
$GNVTG,,T,,M,0.018,N,0.033,K,A*34
$GNGGA,081551.60,4612.66693,N,02009.40642,E,1,12,0.68,89.7,M,37.6,M,,*77
$GNRMC,081551.90,A,4612.66694,N,02009.40642,E,0.022,,190819,,,A*62
$GNVTG,,T,,M,0.022,N,0.040,K,A*39
$GNGGA,081551.90,4612.66694,N,02009.40642,E,1,12,0.68,89.7,M,37.6,M,,*7F
$GNRMC,081552.20,A,4612.66695,N,02009.40641,E,0.016,,190819,,,A*6F
$GNVTG,,T,,M,0.016,N,0.029,K,A*31
$GNGGA,081552.20,4612.66695,N,02009.40641,E,1,12,0.68,89.7,M,37.6,M,,*75
$GNRMC,081552.50,A,4612.66696,N,02009.40641,E,0.062,,190819,,,A*68
$GNVTG,,T,,M,0.062,N,0.115,K,A*3C
$GNGGA,081552.50,4612.66696,N,02009.40641,E,1,12,0.68,89.8,M,37.6,M,,*7E
$GNRMC,081552.80,A,4612.66696,N,02009.40641,E,0.088,,190819,,,A*61
$GNVTG,,T,,M,0.088,N,0.163,K,A*39
$GNGGA,081552.80,4612.66696,N,02009.40641,E,1,12,0.68,89.8,M,37.6,M,,*73
$GNRMC,081553.10,A,4612.66697,N,02009.40641,E,0.012,,190819,,,A*6B
$GNVTG,,T,,M,0.012,N,0.022,K,A*3E
$GNGGA,081553.10,4612.66697,N,02009.40641,E,1,12,0.68,89.8,M,37.6,M,,*7A
$GNRMC,081553.40,A,4612.66697,N,02009.40642,E,0.011,,190819,,,A*6E
$GNVTG,,T,,M,0.011,N,0.020,K,A*3F
$GNGGA,081553.40,4612.66697,N,02009.40642,E,1,12,0.68,89.8,M,37.6,M,,*7C
$GNRMC,081553.70,A,4612.66697,N,02009.40643,E,0.044,,190819,,,A*6C
$GNVTG,,T,,M,0.044,N,0.081,K,A*34
$GNGGA,081553.70,4612.66697,N,02009.40643,E,1,12,0.68,89.9,M,37.6,M,,*7F
$GNRMC,081554.00,A,4612.66697,N,02009.40644,E,0.033,,190819,,,A*6B
$GNVTG,,T,,M,0.033,N,0.061,K,A*3A
$GNGGA,081554.00,4612.66697,N,02009.40644,E,1,12,0.68,89.9,M,37.6,M,,*78
$GNRMC,081554.30,A,4612.66696,N,02009.40644,E,0.095,,190819,,,A*65
$GNVTG,,T,,M,0.095,N,0.175,K,A*32
$GNGGA,081554.30,4612.66696,N,02009.40644,E,1,12,0.68,89.9,M,37.6,M,,*7A
$GNRMC,081554.60,A,4612.66697,N,02009.40644,E,0.064,,190819,,,A*6F
$GNVTG,,T,,M,0.064,N,0.119,K,A*36
$GNGGA,081554.60,4612.66697,N,02009.40644,E,1,12,0.68,89.9,M,37.6,M,,*7E
$GNRMC,081554.90,A,4612.66696,N,02009.40644,E,0.037,,190819,,,A*67
$GNVTG,,T,,M,0.037,N,0.068,K,A*37
$GNGGA,081554.90,4612.66696,N,02009.40644,E,1,12,0.68,89.9,M,37.6,M,,*70
$GNRMC,081555.20,A,4612.66696,N,02009.40643,E,0.029,,190819,,,A*65
$GNVTG,,T,,M,0.029,N,0.054,K,A*37
$GNGGA,081555.20,4612.66696,N,02009.40643,E,1,12,0.68,89.9,M,37.6,M,,*7D
$GNRMC,081555.50,A,4612.66696,N,02009.40643,E,0.014,,190819,,,A*6C
$GNVTG,,T,,M,0.014,N,0.026,K,A*3C
$GNGGA,081555.50,4612.66696,N,02009.40643,E,1,12,0.68,89.9,M,37.6,M,,*7A
$GNRMC,081555.80,A,4612.66695,N,02009.40643,E,0.011,,190819,,,A*67
$GNVTG,,T,,M,0.011,N,0.020,K,A*3F
$GNGGA,081555.80,4612.66695,N,02009.40643,E,1,12,0.68,89.9,M,37.6,M,,*74
$GNRMC,081556.10,A,4612.66695,N,02009.40642,E,0.022,,190819,,,A*6C
$GNVTG,,T,,M,0.022,N,0.041,K,A*38
$GNGGA,081556.10,4612.66695,N,02009.40642,E,1,12,0.68,89.8,M,37.6,M,,*7E
$GNRMC,081556.40,A,4612.66694,N,02009.40642,E,0.028,,190819,,,A*62
$GNVTG,,T,,M,0.028,N,0.052,K,A*30
$GNGGA,081556.40,4612.66694,N,02009.40642,E,1,12,0.68,89.8,M,37.6,M,,*7A
$GNRMC,081556.70,A,4612.66694,N,02009.40643,E,0.064,,190819,,,A*68
$GNVTG,,T,,M,0.064,N,0.118,K,A*37
$GNGGA,081556.70,4612.66694,N,02009.40643,E,1,12,0.68,89.8,M,37.6,M,,*78
$GNRMC,081557.00,A,4612.66694,N,02009.40642,E,0.051,,190819,,,A*69
$GNVTG,,T,,M,0.051,N,0.094,K,A*34
$GNGGA,081557.00,4612.66694,N,02009.40642,E,1,12,0.72,89.8,M,37.6,M,,*74
$GNRMC,081557.30,A,4612.66694,N,02009.40642,E,0.007,,190819,,,A*69
$GNVTG,,T,,M,0.007,N,0.013,K,A*38
$GNGGA,081557.30,4612.66694,N,02009.40642,E,1,12,0.68,89.8,M,37.6,M,,*7C
$GNRMC,081557.60,A,4612.66693,N,02009.40642,E,0.019,,190819,,,A*64
$GNVTG,,T,,M,0.019,N,0.036,K,A*30
$GNGGA,081557.60,4612.66693,N,02009.40642,E,1,12,0.68,89.8,M,37.6,M,,*7E
$GNRMC,081557.90,A,4612.66693,N,02009.40641,E,0.028,,190819,,,A*6A
$GNVTG,,T,,M,0.028,N,0.052,K,A*30
$GNGGA,081557.90,4612.66693,N,02009.40641,E,1,12,0.68,89.7,M,37.6,M,,*7D
$GNRMC,081558.20,A,4612.66693,N,02009.40642,E,0.067,,190819,,,A*66
$GNVTG,,T,,M,0.067,N,0.124,K,A*3B
$GNGGA,081558.20,4612.66693,N,02009.40642,E,1,12,0.68,89.7,M,37.6,M,,*7A
$GNRMC,081558.50,A,4612.66693,N,02009.40642,E,0.073,,190819,,,A*64
$GNVTG,,T,,M,0.073,N,0.136,K,A*3D
$GNGGA,081558.50,4612.66693,N,02009.40642,E,1,12,0.68,89.7,M,37.6,M,,*7D
$GNRMC,081558.80,A,4612.66693,N,02009.40641,E,0.073,,190819,,,A*6A
$GNVTG,,T,,M,0.073,N,0.135,K,A*3E
$GNGGA,081558.80,4612.66693,N,02009.40641,E,1,12,0.68,89.7,M,37.6,M,,*73
$GNRMC,081559.10,A,4612.66694,N,02009.40641,E,0.100,,190819,,,A*60
$GNVTG,,T,,M,0.100,N,0.184,K,A*31
$GNGGA,081559.10,4612.66694,N,02009.40641,E,1,12,0.68,89.7,M,37.6,M,,*7C
$GNRMC,081559.40,A,4612.66694,N,02009.40641,E,0.025,,190819,,,A*63
$GNVTG,,T,,M,0.025,N,0.047,K,A*39
$GNGGA,081559.40,4612.66694,N,02009.40641,E,1,12,0.68,89.7,M,37.6,M,,*79
$GNRMC,081559.70,A,4612.66695,N,02009.40642,E,0.140,,190819,,,A*60
$GNVTG,,T,,M,0.140,N,0.260,K,A*3C
$GNGGA,081559.70,4612.66695,N,02009.40642,E,1,12,0.68,89.7,M,37.6,M,,*78
$GNRMC,081600.00,A,4612.66696,N,02009.40641,E,0.086,,190819,,,A*63
$GNVTG,,T,,M,0.086,N,0.158,K,A*3F
$GNGGA,081600.00,4612.66696,N,02009.40641,E,1,12,0.68,89.6,M,37.6,M,,*71
$GNRMC,081600.30,A,4612.66696,N,02009.40640,E,0.060,,190819,,,A*69
$GNVTG,,T,,M,0.060,N,0.111,K,A*3A
$GNGGA,081600.30,4612.66696,N,02009.40640,E,1,12,0.68,89.6,M,37.6,M,,*73
$GNRMC,081600.60,A,4612.66696,N,02009.40640,E,0.026,,190819,,,A*6E
$GNVTG,,T,,M,0.026,N,0.049,K,A*34
$GNGGA,081600.60,4612.66696,N,02009.40640,E,1,12,0.68,89.6,M,37.6,M,,*76
$GNRMC,081600.90,A,4612.66696,N,02009.40642,E,0.116,,190819,,,A*61
$GNVTG,,T,,M,0.116,N,0.215,K,A*3D
$GNGGA,081600.90,4612.66696,N,02009.40642,E,1,12,0.68,89.6,M,37.6,M,,*7B
$GNRMC,081601.20,A,4612.66696,N,02009.40642,E,0.099,,190819,,,A*6D
$GNVTG,,T,,M,0.099,N,0.184,K,A*30
$GNGGA,081601.20,4612.66696,N,02009.40642,E,1,12,0.68,89.7,M,37.6,M,,*70
$GNRMC,081601.50,A,4612.66696,N,02009.40640,E,0.120,,190819,,,A*6B
$GNVTG,,T,,M,0.120,N,0.223,K,A*3D
$GNGGA,081601.50,4612.66696,N,02009.40640,E,1,12,0.68,89.7,M,37.6,M,,*75
$GNRMC,081601.80,A,4612.66694,N,02009.40648,E,0.485,,190819,,,A*66
$GNVTG,,T,,M,0.485,N,0.897,K,A*32
$GNGGA,081601.80,4612.66694,N,02009.40648,E,1,12,0.68,89.8,M,37.6,M,,*7D
$GNRMC,081602.10,A,4612.66693,N,02009.40646,E,0.029,,190819,,,A*67
$GNVTG,,T,,M,0.029,N,0.054,K,A*37
$GNGGA,081602.10,4612.66693,N,02009.40646,E,1,12,0.68,89.8,M,37.6,M,,*7E
$GNRMC,081602.40,A,4612.66693,N,02009.40644,E,0.086,,190819,,,A*65
$GNVTG,,T,,M,0.086,N,0.160,K,A*34
$GNGGA,081602.40,4612.66693,N,02009.40644,E,1,12,0.68,89.8,M,37.6,M,,*79
$GNRMC,081602.70,A,4612.66691,N,02009.40647,E,0.151,,190819,,,A*6C
$GNVTG,,T,,M,0.151,N,0.280,K,A*32
$GNGGA,081602.70,4612.66691,N,02009.40647,E,1,12,0.68,89.8,M,37.6,M,,*7B
$GNRMC,081603.00,A,4612.66691,N,02009.40647,E,0.081,,190819,,,A*66
$GNVTG,,T,,M,0.081,N,0.151,K,A*31
$GNGGA,081603.00,4612.66691,N,02009.40647,E,1,12,0.68,89.9,M,37.6,M,,*7C
$GNRMC,081603.30,A,4612.66692,N,02009.40645,E,0.167,,190819,,,A*6D
$GNVTG,,T,,M,0.167,N,0.309,K,A*37
$GNGGA,081603.30,4612.66692,N,02009.40645,E,1,12,0.68,89.9,M,37.6,M,,*7E
$GNRMC,081603.60,A,4612.66693,N,02009.40646,E,0.115,,190819,,,A*6F
$GNVTG,,T,,M,0.115,N,0.214,K,A*3F
$GNGGA,081603.60,4612.66693,N,02009.40646,E,1,12,0.68,89.9,M,37.6,M,,*79
$GNRMC,081603.90,A,4612.66691,N,02009.40645,E,0.150,,190819,,,A*60
$GNVTG,,T,,M,0.150,N,0.278,K,A*34
$GNGGA,081603.90,4612.66691,N,02009.40645,E,1,12,0.68,90.0,M,37.6,M,,*76
$GNRMC,081604.20,A,4612.66692,N,02009.40645,E,0.010,,190819,,,A*6A
$GNVTG,,T,,M,0.010,N,0.019,K,A*34
$GNGGA,081604.20,4612.66692,N,02009.40645,E,1,12,0.68,90.0,M,37.6,M,,*79
$GNRMC,081604.50,A,4612.66691,N,02009.40644,E,0.160,,190819,,,A*69
$GNVTG,,T,,M,0.160,N,0.297,K,A*36
$GNGGA,081604.50,4612.66691,N,02009.40644,E,1,12,0.68,90.0,M,37.6,M,,*7C
$GNRMC,081604.80,A,4612.66690,N,02009.40645,E,0.093,,190819,,,A*69
$GNVTG,,T,,M,0.093,N,0.172,K,A*33
$GNGGA,081604.80,4612.66690,N,02009.40645,E,1,12,0.68,90.1,M,37.6,M,,*70
$GNRMC,081605.10,A,4612.66691,N,02009.40644,E,0.047,,190819,,,A*68
$GNVTG,,T,,M,0.047,N,0.087,K,A*31
$GNGGA,081605.10,4612.66691,N,02009.40644,E,1,12,0.68,90.1,M,37.6,M,,*78
$GNRMC,081605.40,A,4612.66692,N,02009.40643,E,0.080,,190819,,,A*62
$GNVTG,,T,,M,0.080,N,0.148,K,A*38
$GNGGA,081605.40,4612.66692,N,02009.40643,E,1,12,0.68,90.2,M,37.6,M,,*7A
$GNRMC,081605.70,A,4612.66692,N,02009.40643,E,0.083,,190819,,,A*62
$GNVTG,,T,,M,0.083,N,0.154,K,A*36
$GNGGA,081605.70,4612.66692,N,02009.40643,E,1,12,0.68,90.2,M,37.6,M,,*79
$GNRMC,081606.00,A,4612.66693,N,02009.40644,E,0.072,,190819,,,A*6E
$GNVTG,,T,,M,0.072,N,0.134,K,A*3E
$GNGGA,081606.00,4612.66693,N,02009.40644,E,1,12,0.68,90.3,M,37.6,M,,*7A
$GNRMC,081606.30,A,4612.66693,N,02009.40644,E,0.052,,190819,,,A*6F
$GNVTG,,T,,M,0.052,N,0.096,K,A*35
$GNGGA,081606.30,4612.66693,N,02009.40644,E,1,12,0.68,90.3,M,37.6,M,,*79
$GNRMC,081606.60,A,4612.66692,N,02009.40643,E,0.066,,190819,,,A*6B
$GNVTG,,T,,M,0.066,N,0.122,K,A*3C
$GNGGA,081606.60,4612.66692,N,02009.40643,E,1,12,0.68,90.3,M,37.6,M,,*7A
$GNRMC,081606.90,A,4612.66693,N,02009.40642,E,0.071,,190819,,,A*62
$GNVTG,,T,,M,0.071,N,0.132,K,A*3B
$GNGGA,081606.90,4612.66693,N,02009.40642,E,1,12,0.68,90.3,M,37.6,M,,*75
$GNRMC,081607.20,A,4612.66693,N,02009.40641,E,0.014,,190819,,,A*68
$GNVTG,,T,,M,0.014,N,0.026,K,A*3C
$GNGGA,081607.20,4612.66693,N,02009.40641,E,1,12,0.68,90.3,M,37.6,M,,*7C
$GNRMC,081607.50,A,4612.66694,N,02009.40641,E,0.050,,190819,,,A*68
$GNVTG,,T,,M,0.050,N,0.093,K,A*32
$GNGGA,081607.50,4612.66694,N,02009.40641,E,1,12,0.68,90.3,M,37.6,M,,*7C
$GNRMC,081607.80,A,4612.66692,N,02009.40641,E,0.151,,190819,,,A*63
$GNVTG,,T,,M,0.151,N,0.280,K,A*32
$GNGGA,081607.80,4612.66692,N,02009.40641,E,1,12,0.68,90.3,M,37.6,M,,*77
$GNRMC,081608.10,A,4612.66693,N,02009.40640,E,0.090,,190819,,,A*69
$GNVTG,,T,,M,0.090,N,0.166,K,A*35
$GNGGA,081608.10,4612.66693,N,02009.40640,E,1,12,0.68,90.3,M,37.6,M,,*71
$GNRMC,081608.40,A,4612.66692,N,02009.40642,E,0.237,,190819,,,A*60
$GNVTG,,T,,M,0.237,N,0.439,K,A*35
$GNGGA,081608.40,4612.66692,N,02009.40642,E,1,12,0.68,90.3,M,37.6,M,,*77
$GNRMC,081608.70,A,4612.66692,N,02009.40641,E,0.107,,190819,,,A*60
$GNVTG,,T,,M,0.107,N,0.199,K,A*3A
$GNGGA,081608.70,4612.66692,N,02009.40641,E,1,12,0.68,90.2,M,37.6,M,,*76
$GNRMC,081609.00,A,4612.66694,N,02009.40640,E,0.187,,190819,,,A*69
$GNVTG,,T,,M,0.187,N,0.347,K,A*33
$GNGGA,081609.00,4612.66694,N,02009.40640,E,1,12,0.68,90.2,M,37.6,M,,*77
$GNRMC,081609.30,A,4612.66694,N,02009.40640,E,0.031,,190819,,,A*66
$GNVTG,,T,,M,0.031,N,0.058,K,A*32
$GNGGA,081609.30,4612.66694,N,02009.40640,E,1,12,0.68,90.2,M,37.6,M,,*74
$GNRMC,081609.60,A,4612.66694,N,02009.40641,E,0.063,,190819,,,A*65
$GNVTG,,T,,M,0.063,N,0.117,K,A*3F
$GNGGA,081609.60,4612.66694,N,02009.40641,E,1,12,0.68,90.2,M,37.6,M,,*70
$GNRMC,081609.90,A,4612.66693,N,02009.40641,E,0.054,,190819,,,A*69
$GNVTG,,T,,M,0.054,N,0.101,K,A*3C
$GNGGA,081609.90,4612.66693,N,02009.40641,E,1,12,0.68,90.2,M,37.6,M,,*78
$GNRMC,081610.20,A,4612.66693,N,02009.40641,E,0.030,,190819,,,A*68
$GNVTG,,T,,M,0.030,N,0.055,K,A*3E
$GNGGA,081610.20,4612.66693,N,02009.40641,E,1,12,0.68,90.2,M,37.6,M,,*7B
$GNRMC,081610.50,A,4612.66693,N,02009.40642,E,0.048,,190819,,,A*63
$GNVTG,,T,,M,0.048,N,0.088,K,A*31
$GNGGA,081610.50,4612.66693,N,02009.40642,E,1,12,0.68,90.2,M,37.6,M,,*7F
$GNRMC,081610.80,A,4612.66693,N,02009.40641,E,0.015,,190819,,,A*65
$GNVTG,,T,,M,0.015,N,0.027,K,A*3C
$GNGGA,081610.80,4612.66693,N,02009.40641,E,1,12,0.68,90.2,M,37.6,M,,*71
$GNRMC,081611.10,A,4612.66694,N,02009.40642,E,0.089,,190819,,,A*6C
$GNVTG,,T,,M,0.089,N,0.165,K,A*3E
$GNGGA,081611.10,4612.66694,N,02009.40642,E,1,12,0.68,90.2,M,37.6,M,,*7D
$GNRMC,081611.40,A,4612.66694,N,02009.40642,E,0.051,,190819,,,A*6C
$GNVTG,,T,,M,0.051,N,0.094,K,A*34
$GNGGA,081611.40,4612.66694,N,02009.40642,E,1,12,0.68,90.2,M,37.6,M,,*78
$GNRMC,081611.70,A,4612.66694,N,02009.40642,E,0.065,,190819,,,A*68
$GNVTG,,T,,M,0.065,N,0.120,K,A*3D
$GNGGA,081611.70,4612.66694,N,02009.40642,E,1,12,0.68,90.2,M,37.6,M,,*7B
$GNRMC,081612.00,A,4612.66695,N,02009.40642,E,0.035,,190819,,,A*68
$GNVTG,,T,,M,0.035,N,0.065,K,A*38
$GNGGA,081612.00,4612.66695,N,02009.40642,E,1,12,0.68,90.2,M,37.6,M,,*7E
$GNRMC,081612.30,A,4612.66695,N,02009.40643,E,0.057,,190819,,,A*6E
$GNVTG,,T,,M,0.057,N,0.106,K,A*38
$GNGGA,081612.30,4612.66695,N,02009.40643,E,1,12,0.68,90.2,M,37.6,M,,*7C
$GNRMC,081612.60,A,4612.66695,N,02009.40643,E,0.021,,190819,,,A*6A
$GNVTG,,T,,M,0.021,N,0.039,K,A*34
$GNGGA,081612.60,4612.66695,N,02009.40643,E,1,12,0.68,90.2,M,37.6,M,,*79
$GNRMC,081612.90,A,4612.66695,N,02009.40643,E,0.040,,190819,,,A*62
$GNVTG,,T,,M,0.040,N,0.075,K,A*3B
$GNGGA,081612.90,4612.66695,N,02009.40643,E,1,12,0.68,90.2,M,37.6,M,,*76
$GNRMC,081613.20,A,4612.66696,N,02009.40644,E,0.034,,190819,,,A*6F
$GNVTG,,T,,M,0.034,N,0.063,K,A*3F
$GNGGA,081613.20,4612.66696,N,02009.40644,E,1,12,0.68,90.2,M,37.6,M,,*78
$GNRMC,081613.50,A,4612.66697,N,02009.40644,E,0.066,,190819,,,A*6E
$GNVTG,,T,,M,0.066,N,0.122,K,A*3C
$GNGGA,081613.50,4612.66697,N,02009.40644,E,1,12,0.68,90.2,M,37.6,M,,*7E
$GNRMC,081613.80,A,4612.66696,N,02009.40645,E,0.066,,190819,,,A*63
$GNVTG,,T,,M,0.066,N,0.122,K,A*3C
$GNGGA,081613.80,4612.66696,N,02009.40645,E,1,12,0.68,90.2,M,37.6,M,,*73
$GNRMC,081614.10,A,4612.66696,N,02009.40644,E,0.073,,190819,,,A*68
$GNVTG,,T,,M,0.073,N,0.134,K,A*3F
$GNGGA,081614.10,4612.66696,N,02009.40644,E,1,12,0.68,90.2,M,37.6,M,,*7C
$GNRMC,081614.40,A,4612.66696,N,02009.40644,E,0.044,,190819,,,A*69
$GNVTG,,T,,M,0.044,N,0.082,K,A*37
$GNGGA,081614.40,4612.66696,N,02009.40644,E,1,12,0.68,90.2,M,37.6,M,,*79
$GNRMC,081614.70,A,4612.66696,N,02009.40644,E,0.009,,190819,,,A*63
$GNVTG,,T,,M,0.009,N,0.017,K,A*32
$GNGGA,081614.70,4612.66696,N,02009.40644,E,1,12,0.68,90.2,M,37.6,M,,*7A
$GNRMC,081615.00,A,4612.66697,N,02009.40643,E,0.021,,190819,,,A*69
$GNVTG,,T,,M,0.021,N,0.039,K,A*34
$GNGGA,081615.00,4612.66697,N,02009.40643,E,1,12,0.68,90.2,M,37.6,M,,*7A
$GNRMC,081615.30,A,4612.66697,N,02009.40643,E,0.029,,190819,,,A*62
$GNVTG,,T,,M,0.029,N,0.054,K,A*37
$GNGGA,081615.30,4612.66697,N,02009.40643,E,1,12,0.68,90.2,M,37.6,M,,*79
$GNRMC,081615.60,A,4612.66697,N,02009.40643,E,0.030,,190819,,,A*6F
$GNVTG,,T,,M,0.030,N,0.055,K,A*3E
$GNGGA,081615.60,4612.66697,N,02009.40643,E,1,12,0.68,90.2,M,37.6,M,,*7C
$GNRMC,081615.90,A,4612.66697,N,02009.40644,E,0.020,,190819,,,A*66
$GNVTG,,T,,M,0.020,N,0.037,K,A*3B
$GNGGA,081615.90,4612.66697,N,02009.40644,E,1,12,0.68,90.2,M,37.6,M,,*74
$GNRMC,081616.20,A,4612.66698,N,02009.40644,E,0.034,,190819,,,A*64
$GNVTG,,T,,M,0.034,N,0.064,K,A*38
$GNGGA,081616.20,4612.66698,N,02009.40644,E,1,12,0.68,90.2,M,37.6,M,,*73
$GNRMC,081616.50,A,4612.66697,N,02009.40644,E,0.054,,190819,,,A*6A
$GNVTG,,T,,M,0.054,N,0.100,K,A*3D
$GNGGA,081616.50,4612.66697,N,02009.40644,E,1,12,0.68,90.2,M,37.6,M,,*7B
$GNRMC,081616.80,A,4612.66698,N,02009.40643,E,0.076,,190819,,,A*6F
$GNVTG,,T,,M,0.076,N,0.141,K,A*38
$GNGGA,081616.80,4612.66698,N,02009.40643,E,1,12,0.68,90.2,M,37.6,M,,*7E
$GNRMC,081617.10,A,4612.66698,N,02009.40643,E,0.043,,190819,,,A*61
$GNVTG,,T,,M,0.043,N,0.079,K,A*34
$GNGGA,081617.10,4612.66698,N,02009.40643,E,1,12,0.68,90.2,M,37.6,M,,*76
$GNRMC,081617.40,A,4612.66698,N,02009.40642,E,0.024,,190819,,,A*64
$GNVTG,,T,,M,0.024,N,0.044,K,A*3B
$GNGGA,081617.40,4612.66698,N,02009.40642,E,1,12,0.68,90.2,M,37.6,M,,*72
$GNRMC,081617.70,A,4612.66698,N,02009.40643,E,0.079,,190819,,,A*6E
$GNVTG,,T,,M,0.079,N,0.146,K,A*30
$GNGGA,081617.70,4612.66698,N,02009.40643,E,1,12,0.68,90.2,M,37.6,M,,*70
$GNRMC,081618.00,A,4612.66697,N,02009.40642,E,0.081,,190819,,,A*6F
$GNVTG,,T,,M,0.081,N,0.150,K,A*30
$GNGGA,081618.00,4612.66697,N,02009.40642,E,1,12,0.68,90.2,M,37.6,M,,*76
$GNRMC,081618.30,A,4612.66699,N,02009.40641,E,0.058,,190819,,,A*65
$GNVTG,,T,,M,0.058,N,0.108,K,A*39
$GNGGA,081618.30,4612.66699,N,02009.40641,E,1,12,0.68,90.2,M,37.6,M,,*78
$GNRMC,081618.60,A,4612.66698,N,02009.40640,E,0.023,,190819,,,A*6C
$GNVTG,,T,,M,0.023,N,0.043,K,A*3B
$GNGGA,081618.60,4612.66698,N,02009.40640,E,1,12,0.68,90.2,M,37.6,M,,*7D
$GNRMC,081618.90,A,4612.66698,N,02009.40640,E,0.019,,190819,,,A*6A
$GNVTG,,T,,M,0.019,N,0.035,K,A*33
$GNGGA,081618.90,4612.66698,N,02009.40640,E,1,12,0.68,90.2,M,37.6,M,,*72
$GNRMC,081619.20,A,4612.66697,N,02009.40640,E,0.024,,190819,,,A*61
$GNVTG,,T,,M,0.024,N,0.045,K,A*3A
$GNGGA,081619.20,4612.66697,N,02009.40640,E,1,12,0.68,90.2,M,37.6,M,,*77
$GNRMC,081619.50,A,4612.66697,N,02009.40640,E,0.048,,190819,,,A*6C
$GNVTG,,T,,M,0.048,N,0.089,K,A*30
$GNGGA,081619.50,4612.66697,N,02009.40640,E,1,12,0.68,90.2,M,37.6,M,,*70
$GNRMC,081619.80,A,4612.66696,N,02009.40641,E,0.044,,190819,,,A*6D
$GNVTG,,T,,M,0.044,N,0.082,K,A*37
$GNGGA,081619.80,4612.66696,N,02009.40641,E,1,12,0.68,90.2,M,37.6,M,,*7D
$GNRMC,081620.10,A,4612.66695,N,02009.40642,E,0.024,,190819,,,A*68
$GNVTG,,T,,M,0.024,N,0.045,K,A*3A
$GNGGA,081620.10,4612.66695,N,02009.40642,E,1,12,0.68,90.3,M,37.6,M,,*7F
$GNRMC,081620.40,A,4612.66695,N,02009.40642,E,0.023,,190819,,,A*6A
$GNVTG,,T,,M,0.023,N,0.042,K,A*3A
$GNGGA,081620.40,4612.66695,N,02009.40642,E,1,12,0.68,90.3,M,37.6,M,,*7A
$GNRMC,081620.70,A,4612.66695,N,02009.40643,E,0.027,,190819,,,A*6C
$GNVTG,,T,,M,0.027,N,0.051,K,A*3C
$GNGGA,081620.70,4612.66695,N,02009.40643,E,1,12,0.68,90.4,M,37.6,M,,*7F
$GNRMC,081621.00,A,4612.66696,N,02009.40641,E,0.009,,190819,,,A*67
$GNVTG,,T,,M,0.009,N,0.017,K,A*32
$GNGGA,081621.00,4612.66696,N,02009.40641,E,1,12,0.68,90.4,M,37.6,M,,*78
$GNRMC,081621.30,A,4612.66697,N,02009.40640,E,0.039,,190819,,,A*67
$GNVTG,,T,,M,0.039,N,0.071,K,A*31
$GNGGA,081621.30,4612.66697,N,02009.40640,E,1,12,0.68,90.5,M,37.6,M,,*7A
$GNRMC,081621.60,A,4612.66698,N,02009.40639,E,0.037,,190819,,,A*6D
$GNVTG,,T,,M,0.037,N,0.068,K,A*37
$GNGGA,081621.60,4612.66698,N,02009.40639,E,1,12,0.68,90.5,M,37.6,M,,*7E
$GNRMC,081621.90,A,4612.66697,N,02009.40639,E,0.076,,190819,,,A*68
$GNVTG,,T,,M,0.076,N,0.142,K,A*3B
$GNGGA,081621.90,4612.66697,N,02009.40639,E,1,12,0.68,90.6,M,37.6,M,,*7D
$GNRMC,081622.20,A,4612.66696,N,02009.40640,E,0.046,,190819,,,A*6C
$GNVTG,,T,,M,0.046,N,0.086,K,A*31
$GNGGA,081622.20,4612.66696,N,02009.40640,E,1,12,0.68,90.6,M,37.6,M,,*7A
$GNRMC,081622.50,A,4612.66695,N,02009.40641,E,0.058,,190819,,,A*66
$GNVTG,,T,,M,0.058,N,0.107,K,A*36
$GNGGA,081622.50,4612.66695,N,02009.40641,E,1,12,0.68,90.6,M,37.6,M,,*7F
$GNRMC,081622.80,A,4612.66695,N,02009.40641,E,0.110,,190819,,,A*66
$GNVTG,,T,,M,0.110,N,0.203,K,A*3C
$GNGGA,081622.80,4612.66695,N,02009.40641,E,1,12,0.68,90.7,M,37.6,M,,*73
$GNRMC,081623.10,A,4612.66694,N,02009.40641,E,0.062,,190819,,,A*6B
$GNVTG,,T,,M,0.062,N,0.115,K,A*3C
$GNGGA,081623.10,4612.66694,N,02009.40641,E,1,12,0.68,90.7,M,37.6,M,,*7A
$GNRMC,081623.40,A,4612.66693,N,02009.40642,E,0.060,,190819,,,A*68
$GNVTG,,T,,M,0.060,N,0.110,K,A*3B
$GNGGA,081623.40,4612.66693,N,02009.40642,E,1,12,0.68,90.8,M,37.6,M,,*74
$GNRMC,081623.70,A,4612.66693,N,02009.40641,E,0.031,,190819,,,A*6C
$GNVTG,,T,,M,0.031,N,0.057,K,A*3D
$GNGGA,081623.70,4612.66693,N,02009.40641,E,1,12,0.68,90.8,M,37.6,M,,*74
$GNRMC,081624.00,A,4612.66692,N,02009.40641,E,0.020,,190819,,,A*6D
$GNVTG,,T,,M,0.020,N,0.038,K,A*34
$GNGGA,081624.00,4612.66692,N,02009.40641,E,1,12,0.68,90.8,M,37.6,M,,*75
$GNRMC,081624.30,A,4612.66691,N,02009.40642,E,0.012,,190819,,,A*6F
$GNVTG,,T,,M,0.012,N,0.022,K,A*3E
$GNGGA,081624.30,4612.66691,N,02009.40642,E,1,12,0.68,90.9,M,37.6,M,,*77
$GNRMC,081624.60,A,4612.66691,N,02009.40641,E,0.043,,190819,,,A*6D
$GNVTG,,T,,M,0.043,N,0.079,K,A*34
$GNGGA,081624.60,4612.66691,N,02009.40641,E,1,12,0.68,90.9,M,37.6,M,,*71
$GNRMC,081624.90,A,4612.66691,N,02009.40642,E,0.013,,190819,,,A*64
$GNVTG,,T,,M,0.013,N,0.025,K,A*38
$GNGGA,081624.90,4612.66691,N,02009.40642,E,1,12,0.68,90.9,M,37.6,M,,*7D
$GNRMC,081625.20,A,4612.66691,N,02009.40642,E,0.071,,190819,,,A*6A
$GNVTG,,T,,M,0.071,N,0.132,K,A*3B
$GNGGA,081625.20,4612.66691,N,02009.40642,E,1,12,0.68,90.9,M,37.6,M,,*77
$GNRMC,081625.50,A,4612.66690,N,02009.40643,E,0.130,,190819,,,A*69
$GNVTG,,T,,M,0.130,N,0.240,K,A*39
$GNGGA,081625.50,4612.66690,N,02009.40643,E,1,12,0.68,90.9,M,37.6,M,,*70
$GNRMC,081625.80,A,4612.66690,N,02009.40643,E,0.088,,190819,,,A*66
$GNVTG,,T,,M,0.088,N,0.163,K,A*39
$GNGGA,081625.80,4612.66690,N,02009.40643,E,1,12,0.68,90.9,M,37.6,M,,*7D
$GNRMC,081626.10,A,4612.66689,N,02009.40642,E,0.016,,190819,,,A*62
$GNVTG,,T,,M,0.016,N,0.030,K,A*39
$GNGGA,081626.10,4612.66689,N,02009.40642,E,1,12,0.68,90.9,M,37.6,M,,*7E
$GNRMC,081626.40,A,4612.66688,N,02009.40642,E,0.074,,190819,,,A*62
$GNVTG,,T,,M,0.074,N,0.137,K,A*3B
$GNGGA,081626.40,4612.66688,N,02009.40642,E,1,12,0.68,90.9,M,37.6,M,,*7A
$GNRMC,081626.70,A,4612.66688,N,02009.40643,E,0.077,,190819,,,A*63
$GNVTG,,T,,M,0.077,N,0.142,K,A*3A
$GNGGA,081626.70,4612.66688,N,02009.40643,E,1,12,0.68,90.9,M,37.6,M,,*78
$GNRMC,081627.00,A,4612.66687,N,02009.40643,E,0.048,,190819,,,A*66
$GNVTG,,T,,M,0.048,N,0.088,K,A*31
$GNGGA,081627.00,4612.66687,N,02009.40643,E,1,12,0.68,90.9,M,37.6,M,,*71
$GNRMC,081627.30,A,4612.66688,N,02009.40643,E,0.134,,190819,,,A*60
$GNVTG,,T,,M,0.134,N,0.248,K,A*35
$GNGGA,081627.30,4612.66688,N,02009.40643,E,1,12,0.68,90.9,M,37.6,M,,*7D
$GNRMC,081627.60,A,4612.66685,N,02009.40642,E,0.206,,190819,,,A*6B
$GNVTG,,T,,M,0.206,N,0.381,K,A*33
$GNGGA,081627.60,4612.66685,N,02009.40642,E,1,12,0.68,90.9,M,37.6,M,,*74
$GNRMC,081627.90,A,4612.66686,N,02009.40642,E,0.160,,190819,,,A*64
$GNVTG,,T,,M,0.160,N,0.297,K,A*36
$GNGGA,081627.90,4612.66686,N,02009.40642,E,1,12,0.68,90.9,M,37.6,M,,*78
$GNRMC,081628.20,A,4612.66684,N,02009.40642,E,0.145,,190819,,,A*65
$GNVTG,,T,,M,0.145,N,0.269,K,A*30
$GNGGA,081628.20,4612.66684,N,02009.40642,E,1,12,0.68,90.9,M,37.6,M,,*7E
$GNRMC,081628.50,A,4612.66684,N,02009.40642,E,0.055,,190819,,,A*62
$GNVTG,,T,,M,0.055,N,0.103,K,A*3F
$GNGGA,081628.50,4612.66684,N,02009.40642,E,1,12,0.68,90.9,M,37.6,M,,*79
$GNRMC,081628.80,A,4612.66684,N,02009.40642,E,0.022,,190819,,,A*6F
$GNVTG,,T,,M,0.022,N,0.042,K,A*3B
$GNGGA,081628.80,4612.66684,N,02009.40642,E,1,12,0.68,90.9,M,37.6,M,,*74
$GNRMC,081629.10,A,4612.66683,N,02009.40642,E,0.023,,190819,,,A*61
$GNVTG,,T,,M,0.023,N,0.043,K,A*3B
$GNGGA,081629.10,4612.66683,N,02009.40642,E,1,12,0.68,90.9,M,37.6,M,,*7B
$GNRMC,081629.40,A,4612.66682,N,02009.40641,E,0.048,,190819,,,A*6B
$GNVTG,,T,,M,0.048,N,0.089,K,A*30
$GNGGA,081629.40,4612.66682,N,02009.40641,E,1,12,0.68,90.9,M,37.6,M,,*7C
$GNRMC,081629.70,A,4612.66682,N,02009.40640,E,0.078,,190819,,,A*6A
$GNVTG,,T,,M,0.078,N,0.144,K,A*33
$GNGGA,081629.70,4612.66682,N,02009.40640,E,1,12,0.68,90.9,M,37.6,M,,*7E
$GNRMC,081630.00,A,4612.66682,N,02009.40640,E,0.020,,190819,,,A*68
$GNVTG,,T,,M,0.020,N,0.036,K,A*3A
$GNGGA,081630.00,4612.66682,N,02009.40640,E,1,12,0.68,90.9,M,37.6,M,,*71
$GNRMC,081630.30,A,4612.66681,N,02009.40639,E,0.024,,190819,,,A*62
$GNVTG,,T,,M,0.024,N,0.045,K,A*3A
$GNGGA,081630.30,4612.66681,N,02009.40639,E,1,12,0.68,90.9,M,37.6,M,,*7F
$GNRMC,081630.60,A,4612.66681,N,02009.40639,E,0.030,,190819,,,A*62
$GNVTG,,T,,M,0.030,N,0.056,K,A*3D
$GNGGA,081630.60,4612.66681,N,02009.40639,E,1,12,0.68,90.9,M,37.6,M,,*7A
$GNRMC,081630.90,A,4612.66681,N,02009.40639,E,0.035,,190819,,,A*68
$GNVTG,,T,,M,0.035,N,0.066,K,A*3B
$GNGGA,081630.90,4612.66681,N,02009.40639,E,1,12,0.68,90.8,M,37.6,M,,*74
$GNRMC,081631.20,A,4612.66681,N,02009.40638,E,0.080,,190819,,,A*6D
$GNVTG,,T,,M,0.080,N,0.148,K,A*38
$GNGGA,081631.20,4612.66681,N,02009.40638,E,1,12,0.68,90.8,M,37.6,M,,*7F
$GNRMC,081631.50,A,4612.66681,N,02009.40639,E,0.065,,190819,,,A*60
$GNVTG,,T,,M,0.065,N,0.119,K,A*37
$GNGGA,081631.50,4612.66681,N,02009.40639,E,1,12,0.68,90.8,M,37.6,M,,*79
$GNRMC,081631.80,A,4612.66681,N,02009.40639,E,0.018,,190819,,,A*67
$GNVTG,,T,,M,0.018,N,0.033,K,A*34
