connecting...
connected
$GNRMC,085820.10,A,4612.66820,N,02009.40666,E,0.034,,190819,,,A*65
$GNVTG,,T,,M,0.034,N,0.062,K,A*3E
$GNGGA,085820.10,4612.66820,N,02009.40666,E,1,12,0.59,88.8,M,37.6,M,,*73
$GNRMC,085820.40,A,4612.66820,N,02009.40666,E,0.009,,190819,,,A*6E
$GNVTG,,T,,M,0.009,N,0.016,K,A*33
$GNGGA,085820.40,4612.66820,N,02009.40666,E,1,12,0.59,88.8,M,37.6,M,,*76
$GNRMC,085820.70,A,4612.66819,N,02009.40665,E,0.010,,190819,,,A*6C
$GNVTG,,T,,M,0.010,N,0.019,K,A*34
$GNGGA,085820.70,4612.66819,N,02009.40665,E,1,12,0.59,88.7,M,37.6,M,,*73
$GNRMC,085821.00,A,4612.66819,N,02009.40665,E,0.023,,190819,,,A*6A
$GNVTG,,T,,M,0.023,N,0.043,K,A*3B
$GNGGA,085821.00,4612.66819,N,02009.40665,E,1,12,0.59,88.7,M,37.6,M,,*75
$GNRMC,085821.30,A,4612.66819,N,02009.40664,E,0.051,,190819,,,A*6D
$GNVTG,,T,,M,0.051,N,0.095,K,A*35
$GNGGA,085821.30,4612.66819,N,02009.40664,E,1,12,0.59,88.7,M,37.6,M,,*77
$GNRMC,085821.60,A,4612.66819,N,02009.40663,E,0.042,,190819,,,A*6D
$GNVTG,,T,,M,0.042,N,0.078,K,A*34
$GNGGA,085821.60,4612.66819,N,02009.40663,E,1,12,0.59,88.6,M,37.6,M,,*74
$GNRMC,085821.90,A,4612.66819,N,02009.40663,E,0.051,,190819,,,A*60
$GNVTG,,T,,M,0.051,N,0.094,K,A*34
$GNGGA,085821.90,4612.66819,N,02009.40663,E,1,12,0.59,88.6,M,37.6,M,,*7B
$GNRMC,085822.20,A,4612.66819,N,02009.40662,E,0.064,,190819,,,A*6F
$GNVTG,,T,,M,0.064,N,0.118,K,A*37
$GNGGA,085822.20,4612.66819,N,02009.40662,E,1,12,0.59,88.6,M,37.6,M,,*72
$GNRMC,085822.50,A,4612.66820,N,02009.40660,E,0.080,,190819,,,A*6A
$GNVTG,,T,,M,0.080,N,0.147,K,A*37
$GNGGA,085822.50,4612.66820,N,02009.40660,E,1,12,0.59,88.5,M,37.6,M,,*7E
$GNRMC,085822.80,A,4612.66820,N,02009.40659,E,0.046,,190819,,,A*67
$GNVTG,,T,,M,0.046,N,0.085,K,A*32
$GNGGA,085822.80,4612.66820,N,02009.40659,E,1,12,0.59,88.5,M,37.6,M,,*79
$GNRMC,085823.10,A,4612.66820,N,02009.40658,E,0.051,,190819,,,A*68
$GNVTG,,T,,M,0.051,N,0.094,K,A*34
$GNGGA,085823.10,4612.66820,N,02009.40658,E,1,12,0.59,88.5,M,37.6,M,,*70
$GNRMC,085823.40,A,4612.66821,N,02009.40658,E,0.053,,190819,,,A*6E
$GNVTG,,T,,M,0.053,N,0.098,K,A*3A
$GNGGA,085823.40,4612.66821,N,02009.40658,E,1,12,0.59,88.5,M,37.6,M,,*74
$GNRMC,085823.70,A,4612.66822,N,02009.40657,E,0.041,,190819,,,A*62
$GNVTG,,T,,M,0.041,N,0.075,K,A*3A
$GNGGA,085823.70,4612.66822,N,02009.40657,E,1,12,0.59,88.4,M,37.6,M,,*7A
$GNRMC,085824.00,A,4612.66822,N,02009.40657,E,0.053,,190819,,,A*61
$GNVTG,,T,,M,0.053,N,0.099,K,A*3B
$GNGGA,085824.00,4612.66822,N,02009.40657,E,1,12,0.59,88.4,M,37.6,M,,*7A
$GNRMC,085824.30,A,4612.66823,N,02009.40657,E,0.068,,190819,,,A*6B
$GNVTG,,T,,M,0.068,N,0.125,K,A*35
$GNGGA,085824.30,4612.66823,N,02009.40657,E,1,12,0.59,88.4,M,37.6,M,,*78
$GNRMC,085824.60,A,4612.66823,N,02009.40656,E,0.041,,190819,,,A*64
$GNVTG,,T,,M,0.041,N,0.077,K,A*38
$GNGGA,085824.60,4612.66823,N,02009.40656,E,1,12,0.59,88.4,M,37.6,M,,*7C
$GNRMC,085824.90,A,4612.66823,N,02009.40655,E,0.041,,190819,,,A*68
$GNVTG,,T,,M,0.041,N,0.076,K,A*39
$GNGGA,085824.90,4612.66823,N,02009.40655,E,1,12,0.59,88.3,M,37.6,M,,*77
$GNRMC,085825.20,A,4612.66823,N,02009.40654,E,0.064,,190819,,,A*64
$GNVTG,,T,,M,0.064,N,0.118,K,A*37
$GNGGA,085825.20,4612.66823,N,02009.40654,E,1,12,0.59,88.3,M,37.6,M,,*7C
$GNRMC,085825.50,A,4612.66822,N,02009.40653,E,0.014,,190819,,,A*62
$GNVTG,,T,,M,0.014,N,0.026,K,A*3C
$GNGGA,085825.50,4612.66822,N,02009.40653,E,1,12,0.59,88.3,M,37.6,M,,*7D
$GNRMC,085825.80,A,4612.66822,N,02009.40652,E,0.024,,190819,,,A*6D
$GNVTG,,T,,M,0.024,N,0.044,K,A*3B
$GNGGA,085825.80,4612.66822,N,02009.40652,E,1,12,0.59,88.3,M,37.6,M,,*71
$GNRMC,085826.10,A,4612.66822,N,02009.40651,E,0.037,,190819,,,A*66
$GNVTG,,T,,M,0.037,N,0.068,K,A*37
$GNGGA,085826.10,4612.66822,N,02009.40651,E,1,12,0.59,88.3,M,37.6,M,,*78
$GNRMC,085826.40,A,4612.66822,N,02009.40650,E,0.068,,190819,,,A*68
$GNVTG,,T,,M,0.068,N,0.125,K,A*35
$GNGGA,085826.40,4612.66822,N,02009.40650,E,1,12,0.59,88.3,M,37.6,M,,*7C
$GNRMC,085826.70,A,4612.66822,N,02009.40649,E,0.021,,190819,,,A*6E
$GNVTG,,T,,M,0.021,N,0.039,K,A*34
$GNGGA,085826.70,4612.66822,N,02009.40649,E,1,12,0.59,88.3,M,37.6,M,,*77
$GNRMC,085827.00,A,4612.66822,N,02009.40649,E,0.029,,190819,,,A*60
$GNVTG,,T,,M,0.029,N,0.053,K,A*30
$GNGGA,085827.00,4612.66822,N,02009.40649,E,1,12,0.59,88.3,M,37.6,M,,*71
$GNRMC,085827.30,A,4612.66821,N,02009.40648,E,0.033,,190819,,,A*6A
$GNVTG,,T,,M,0.033,N,0.061,K,A*3A
$GNGGA,085827.30,4612.66821,N,02009.40648,E,1,12,0.59,88.3,M,37.6,M,,*70
$GNRMC,085827.60,A,4612.66821,N,02009.40647,E,0.015,,190819,,,A*64
$GNVTG,,T,,M,0.015,N,0.028,K,A*33
$GNGGA,085827.60,4612.66821,N,02009.40647,E,1,12,0.59,88.3,M,37.6,M,,*7A
$GNRMC,085827.90,A,4612.66820,N,02009.40647,E,0.075,,190819,,,A*6C
$GNVTG,,T,,M,0.075,N,0.138,K,A*35
$GNGGA,085827.90,4612.66820,N,02009.40647,E,1,12,0.59,88.3,M,37.6,M,,*74
$GNRMC,085828.20,A,4612.66820,N,02009.40645,E,0.030,,190819,,,A*6B
$GNVTG,,T,,M,0.030,N,0.055,K,A*3E
$GNGGA,085828.20,4612.66820,N,02009.40645,E,1,12,0.59,88.2,M,37.6,M,,*73
$GNRMC,085828.50,A,4612.66820,N,02009.40644,E,0.008,,190819,,,A*66
$GNVTG,,T,,M,0.008,N,0.015,K,A*31
$GNGGA,085828.50,4612.66820,N,02009.40644,E,1,12,0.59,88.2,M,37.6,M,,*75
$GNRMC,085828.80,A,4612.66820,N,02009.40644,E,0.028,,190819,,,A*69
$GNVTG,,T,,M,0.028,N,0.052,K,A*30
$GNGGA,085828.80,4612.66820,N,02009.40644,E,1,12,0.59,88.2,M,37.6,M,,*78
$GNRMC,085829.10,A,4612.66821,N,02009.40643,E,0.038,,190819,,,A*66
$GNVTG,,T,,M,0.038,N,0.070,K,A*31
$GNGGA,085829.10,4612.66821,N,02009.40643,E,1,12,0.59,88.2,M,37.6,M,,*76
$GNRMC,085829.40,A,4612.66821,N,02009.40643,E,0.019,,190819,,,A*60
$GNVTG,,T,,M,0.019,N,0.035,K,A*33
$GNGGA,085829.40,4612.66821,N,02009.40643,E,1,12,0.59,88.2,M,37.6,M,,*73
$GNRMC,085829.70,A,4612.66821,N,02009.40642,E,0.049,,190819,,,A*67
$GNVTG,,T,,M,0.049,N,0.090,K,A*39
$GNGGA,085829.70,4612.66821,N,02009.40642,E,1,12,0.59,88.1,M,37.6,M,,*72
$GNRMC,085830.00,A,4612.66819,N,02009.40640,E,0.111,,190819,,,A*6D
$GNVTG,,T,,M,0.111,N,0.205,K,A*3B
$GNGGA,085830.00,4612.66819,N,02009.40640,E,1,12,0.59,88.1,M,37.6,M,,*74
$GNRMC,085830.30,A,4612.66819,N,02009.40640,E,0.069,,190819,,,A*60
$GNVTG,,T,,M,0.069,N,0.128,K,A*39
$GNGGA,085830.30,4612.66819,N,02009.40640,E,1,12,0.59,88.1,M,37.6,M,,*77
$GNRMC,085830.60,A,4612.66819,N,02009.40639,E,0.023,,190819,,,A*65
$GNVTG,,T,,M,0.023,N,0.043,K,A*3B
$GNGGA,085830.60,4612.66819,N,02009.40639,E,1,12,0.59,88.1,M,37.6,M,,*7C
$GNRMC,085830.90,A,4612.66820,N,02009.40640,E,0.185,,190819,,,A*63
$GNVTG,,T,,M,0.185,N,0.342,K,A*34
$GNGGA,085830.90,4612.66820,N,02009.40640,E,1,12,0.59,88.1,M,37.6,M,,*77
$GNRMC,085831.20,A,4612.66820,N,02009.40639,E,0.081,,190819,,,A*62
$GNVTG,,T,,M,0.081,N,0.150,K,A*30
$GNGGA,085831.20,4612.66820,N,02009.40639,E,1,12,0.59,88.1,M,37.6,M,,*73
$GNRMC,085831.50,A,4612.66819,N,02009.40638,E,0.030,,190819,,,A*64
$GNVTG,,T,,M,0.030,N,0.055,K,A*3E
$GNGGA,085831.50,4612.66819,N,02009.40638,E,1,12,0.59,88.1,M,37.6,M,,*7F
$GNRMC,085831.80,A,4612.66819,N,02009.40638,E,0.052,,190819,,,A*6D
$GNVTG,,T,,M,0.052,N,0.096,K,A*35
$GNGGA,085831.80,4612.66819,N,02009.40638,E,1,12,0.59,88.1,M,37.6,M,,*72
$GNRMC,085832.10,A,4612.66817,N,02009.40638,E,0.053,,190819,,,A*68
$GNVTG,,T,,M,0.053,N,0.099,K,A*3B
$GNGGA,085832.10,4612.66817,N,02009.40638,E,1,12,0.59,88.1,M,37.6,M,,*76
$GNRMC,085832.40,A,4612.66816,N,02009.40637,E,0.073,,190819,,,A*61
$GNVTG,,T,,M,0.073,N,0.136,K,A*3D
$GNGGA,085832.40,4612.66816,N,02009.40637,E,1,12,0.59,88.1,M,37.6,M,,*7D
$GNRMC,085832.70,A,4612.66816,N,02009.40637,E,0.042,,190819,,,A*60
$GNVTG,,T,,M,0.042,N,0.078,K,A*34
$GNGGA,085832.70,4612.66816,N,02009.40637,E,1,12,0.59,88.1,M,37.6,M,,*7E
$GNRMC,085833.00,A,4612.66815,N,02009.40638,E,0.046,,190819,,,A*6E
$GNVTG,,T,,M,0.046,N,0.085,K,A*32
$GNGGA,085833.00,4612.66815,N,02009.40638,E,1,12,0.59,88.1,M,37.6,M,,*74
$GNRMC,085833.30,A,4612.66815,N,02009.40640,E,0.132,,190819,,,A*60
$GNVTG,,T,,M,0.132,N,0.245,K,A*3E
$GNGGA,085833.30,4612.66815,N,02009.40640,E,1,12,0.59,88.1,M,37.6,M,,*78
$GNRMC,085833.60,A,4612.66815,N,02009.40639,E,0.058,,190819,,,A*66
$GNVTG,,T,,M,0.058,N,0.108,K,A*39
$GNGGA,085833.60,4612.66815,N,02009.40639,E,1,12,0.59,88.1,M,37.6,M,,*73
$GNRMC,085833.90,A,4612.66813,N,02009.40640,E,0.098,,190819,,,A*6D
$GNVTG,,T,,M,0.098,N,0.181,K,A*34
$GNGGA,085833.90,4612.66813,N,02009.40640,E,1,12,0.59,88.0,M,37.6,M,,*75
$GNRMC,085834.20,A,4612.66813,N,02009.40639,E,0.117,,190819,,,A*69
$GNVTG,,T,,M,0.117,N,0.216,K,A*3F
$GNGGA,085834.20,4612.66813,N,02009.40639,E,1,12,0.59,88.1,M,37.6,M,,*76
$GNRMC,085834.50,A,4612.66813,N,02009.40638,E,0.077,,190819,,,A*68
$GNVTG,,T,,M,0.077,N,0.142,K,A*3A
$GNGGA,085834.50,4612.66813,N,02009.40638,E,1,12,0.59,88.0,M,37.6,M,,*71
$GNRMC,085834.80,A,4612.66813,N,02009.40639,E,0.113,,190819,,,A*67
$GNVTG,,T,,M,0.113,N,0.209,K,A*35
$GNGGA,085834.80,4612.66813,N,02009.40639,E,1,12,0.59,88.0,M,37.6,M,,*7D
$GNRMC,085835.10,A,4612.66814,N,02009.40639,E,0.081,,190819,,,A*62
$GNVTG,,T,,M,0.081,N,0.150,K,A*30
$GNGGA,085835.10,4612.66814,N,02009.40639,E,1,12,0.59,88.0,M,37.6,M,,*72
$GNRMC,085835.40,A,4612.66812,N,02009.40637,E,0.176,,190819,,,A*66
$GNVTG,,T,,M,0.176,N,0.327,K,A*3B
$GNGGA,085835.40,4612.66812,N,02009.40637,E,1,12,0.59,88.0,M,37.6,M,,*7F
$GNRMC,085835.70,A,4612.66813,N,02009.40637,E,0.116,,190819,,,A*62
$GNVTG,,T,,M,0.116,N,0.214,K,A*3C
$GNGGA,085835.70,4612.66813,N,02009.40637,E,1,12,0.59,88.0,M,37.6,M,,*7D
$GNRMC,085836.00,A,4612.66822,N,02009.40635,E,0.998,355.65,190819,,,A*76
$GNVTG,355.65,T,,M,0.998,N,1.847,K,A*21
$GNGGA,085836.00,4612.66822,N,02009.40635,E,1,12,0.59,88.3,M,37.6,M,,*7A
$GNRMC,085836.30,A,4612.66840,N,02009.40633,E,2.381,345.45,190819,,,A*74
$GNVTG,345.45,T,,M,2.381,N,4.410,K,A*29
$GNGGA,085836.30,4612.66840,N,02009.40633,E,1,12,0.59,89.4,M,37.6,M,,*7D
$GNRMC,085836.60,A,4612.66863,N,02009.40626,E,3.289,341.60,190819,,,A*7F
$GNVTG,341.60,T,,M,3.289,N,6.092,K,A*2E
$GNGGA,085836.60,4612.66863,N,02009.40626,E,1,12,0.59,91.5,M,37.6,M,,*75
$GNRMC,085836.90,A,4612.66891,N,02009.40627,E,3.840,343.65,190819,,,A*74
$GNVTG,343.65,T,,M,3.840,N,7.112,K,A*2E
$GNGGA,085836.90,4612.66891,N,02009.40627,E,1,12,0.59,94.5,M,37.6,M,,*73
$GNRMC,085837.20,A,4612.66924,N,02009.40624,E,4.363,344.63,190819,,,A*7E
$GNVTG,344.63,T,,M,4.363,N,8.080,K,A*27
$GNGGA,085837.20,4612.66924,N,02009.40624,E,1,12,0.59,97.9,M,37.6,M,,*7A
$GNRMC,085837.50,A,4612.66960,N,02009.40619,E,4.773,346.40,190819,,,A*71
$GNVTG,346.40,T,,M,4.773,N,8.840,K,A*25
$GNGGA,085837.50,4612.66960,N,02009.40619,E,1,12,0.59,101.2,M,37.6,M,,*46
$GNRMC,085837.80,A,4612.67006,N,02009.40612,E,5.673,348.31,190819,,,A*77
$GNVTG,348.31,T,,M,5.673,N,10.507,K,A*1A
$GNGGA,085837.80,4612.67006,N,02009.40612,E,1,12,0.59,104.5,M,37.6,M,,*4A
$GNRMC,085838.10,A,4612.67057,N,02009.40602,E,6.300,350.03,190819,,,A*7E
$GNVTG,350.03,T,,M,6.300,N,11.668,K,A*1B
$GNGGA,085838.10,4612.67057,N,02009.40602,E,1,12,0.59,107.4,M,37.6,M,,*4B
$GNRMC,085838.40,A,4612.67103,N,02009.40584,E,5.930,345.40,190819,,,A*7F
$GNVTG,345.40,T,,M,5.930,N,10.982,K,A*18
$GNGGA,085838.40,4612.67103,N,02009.40584,E,1,12,0.59,110.1,M,37.6,M,,*40
$GNRMC,085838.70,A,4612.67156,N,02009.40559,E,6.707,341.90,190819,,,A*7C
$GNVTG,341.90,T,,M,6.707,N,12.421,K,A*1E
$GNGGA,085838.70,4612.67156,N,02009.40559,E,1,12,0.59,112.6,M,37.6,M,,*46
$GNRMC,085839.00,A,4612.67209,N,02009.40529,E,6.821,339.39,190819,,,A*73
$GNVTG,339.39,T,,M,6.821,N,12.632,K,A*19
$GNGGA,085839.00,4612.67209,N,02009.40529,E,1,12,0.59,115.1,M,37.6,M,,*4E
$GNRMC,085839.30,A,4612.67262,N,02009.40491,E,7.227,335.20,190819,,,A*76
$GNVTG,335.20,T,,M,7.227,N,13.384,K,A*19
$GNGGA,085839.30,4612.67262,N,02009.40491,E,1,12,0.59,117.5,M,37.6,M,,*44
$GNRMC,085839.60,A,4612.67312,N,02009.40441,E,7.396,326.93,190819,,,A*79
$GNVTG,326.93,T,,M,7.396,N,13.697,K,A*1F
$GNGGA,085839.60,4612.67312,N,02009.40441,E,1,12,0.59,119.9,M,37.6,M,,*48
$GNRMC,085839.90,A,4612.67352,N,02009.40378,E,7.227,315.14,190819,,,A*7B
$GNVTG,315.14,T,,M,7.227,N,13.384,K,A*1C
$GNGGA,085839.90,4612.67352,N,02009.40378,E,1,12,0.62,122.2,M,37.6,M,,*45
$GNRMC,085840.20,A,4612.67369,N,02009.40308,E,6.366,298.02,190819,,,A*77
$GNVTG,298.02,T,,M,6.366,N,11.790,K,A*19
$GNGGA,085840.20,4612.67369,N,02009.40308,E,1,12,0.61,124.3,M,37.6,M,,*4B
$GNRMC,085840.50,A,4612.67380,N,02009.40224,E,6.754,281.73,190819,,,A*73
$GNVTG,281.73,T,,M,6.754,N,12.509,K,A*13
$GNGGA,085840.50,4612.67380,N,02009.40224,E,1,12,0.62,126.3,M,37.6,M,,*45
$GNRMC,085840.80,A,4612.67368,N,02009.40127,E,7.587,265.22,190819,,,A*7B
$GNVTG,265.22,T,,M,7.587,N,14.051,K,A*1E
$GNGGA,085840.80,4612.67368,N,02009.40127,E,1,12,0.61,127.8,M,37.6,M,,*47
$GNRMC,085841.10,A,4612.67349,N,02009.40024,E,8.338,256.38,190819,,,A*74
$GNVTG,256.38,T,,M,8.338,N,15.442,K,A*1F
$GNGGA,085841.10,4612.67349,N,02009.40024,E,1,12,0.59,129.4,M,37.6,M,,*47
$GNRMC,085841.40,A,4612.67319,N,02009.39921,E,8.611,250.35,190819,,,A*73
$GNVTG,250.35,T,,M,8.611,N,15.947,K,A*12
$GNGGA,085841.40,4612.67319,N,02009.39921,E,1,12,0.59,130.6,M,37.6,M,,*4F
$GNRMC,085841.70,A,4612.67283,N,02009.39825,E,8.447,242.91,190819,,,A*7B
$GNVTG,242.91,T,,M,8.447,N,15.643,K,A*15
$GNGGA,085841.70,4612.67283,N,02009.39825,E,1,12,0.59,131.6,M,37.6,M,,*4A
$GNRMC,085842.00,A,4612.67239,N,02009.39743,E,7.990,234.60,190819,,,A*76
$GNVTG,234.60,T,,M,7.990,N,14.797,K,A*1B
$GNGGA,085842.00,4612.67239,N,02009.39743,E,1,12,0.59,132.5,M,37.6,M,,*40
$GNRMC,085842.30,A,4612.67192,N,02009.39683,E,7.337,226.42,190819,,,A*7E
$GNVTG,226.42,T,,M,7.337,N,13.589,K,A*15
$GNGGA,085842.30,4612.67192,N,02009.39683,E,1,12,0.59,133.8,M,37.6,M,,*40
$GNRMC,085842.60,A,4612.67134,N,02009.39643,E,7.336,210.99,190819,,,A*79
$GNVTG,210.99,T,,M,7.336,N,13.587,K,A*19
$GNGGA,085842.60,4612.67134,N,02009.39643,E,1,12,0.59,134.8,M,37.6,M,,*42
$GNRMC,085842.90,A,4612.67075,N,02009.39620,E,7.197,198.57,190819,,,A*7F
$GNVTG,198.57,T,,M,7.197,N,13.329,K,A*13
$GNGGA,085842.90,4612.67075,N,02009.39620,E,1,12,0.59,135.7,M,37.6,M,,*42
$GNRMC,085843.20,A,4612.67012,N,02009.39613,E,7.391,187.50,190819,,,A*79
$GNVTG,187.50,T,,M,7.391,N,13.688,K,A*10
$GNGGA,085843.20,4612.67012,N,02009.39613,E,1,12,0.59,136.6,M,37.6,M,,*4B
$GNRMC,085843.50,A,4612.66947,N,02009.39621,E,7.806,178.13,190819,,,A*75
$GNVTG,178.13,T,,M,7.806,N,14.456,K,A*14
$GNGGA,085843.50,4612.66947,N,02009.39621,E,1,12,0.59,137.4,M,37.6,M,,*46
$GNRMC,085843.80,A,4612.66881,N,02009.39640,E,8.124,170.58,190819,,,A*75
$GNVTG,170.58,T,,M,8.124,N,15.046,K,A*11
$GNGGA,085843.80,4612.66881,N,02009.39640,E,1,12,0.59,138.2,M,37.6,M,,*4E
$GNRMC,085844.10,A,4612.66813,N,02009.39670,E,8.561,164.61,190819,,,A*79
$GNVTG,164.61,T,,M,8.561,N,15.855,K,A*11
$GNGGA,085844.10,4612.66813,N,02009.39670,E,1,12,0.59,139.2,M,37.6,M,,*49
$GNRMC,085844.40,A,4612.66740,N,02009.39710,E,9.129,160.48,190819,,,A*74
$GNVTG,160.48,T,,M,9.129,N,16.906,K,A*13
$GNGGA,085844.40,4612.66740,N,02009.39710,E,1,12,0.59,140.2,M,37.6,M,,*4C
$GNRMC,085844.70,A,4612.66669,N,02009.39760,E,9.421,155.40,190819,,,A*79
$GNVTG,155.40,T,,M,9.421,N,17.448,K,A*16
$GNGGA,085844.70,4612.66669,N,02009.39760,E,1,12,0.60,141.3,M,37.6,M,,*48
$GNRMC,085845.00,A,4612.66600,N,02009.39823,E,9.765,150.23,190819,,,A*7B
$GNVTG,150.23,T,,M,9.765,N,18.085,K,A*1F
$GNGGA,085845.00,4612.66600,N,02009.39823,E,1,12,0.60,142.3,M,37.6,M,,*4A
$GNRMC,085845.30,A,4612.66525,N,02009.39893,E,10.495,147.38,190819,,,A*4F
$GNVTG,147.38,T,,M,10.495,N,19.437,K,A*2B
$GNGGA,085845.30,4612.66525,N,02009.39893,E,1,12,0.60,143.4,M,37.6,M,,*40
$GNRMC,085845.60,A,4612.66455,N,02009.39967,E,10.537,144.09,190819,,,A*4E
$GNVTG,144.09,T,,M,10.537,N,19.514,K,A*23
$GNGGA,085845.60,4612.66455,N,02009.39967,E,1,12,0.60,144.3,M,37.6,M,,*49
$GNRMC,085845.90,A,4612.66387,N,02009.40050,E,10.822,140.48,190819,,,A*42
$GNVTG,140.48,T,,M,10.822,N,20.042,K,A*27
$GNGGA,085845.90,4612.66387,N,02009.40050,E,1,12,0.60,145.3,M,37.6,M,,*4C
$GNRMC,085846.20,A,4612.66315,N,02009.40143,E,11.466,138.34,190819,,,A*4B
$GNVTG,138.34,T,,M,11.466,N,21.235,K,A*2D
$GNGGA,085846.20,4612.66315,N,02009.40143,E,1,12,0.60,146.4,M,37.6,M,,*48
$GNRMC,085846.50,A,4612.66241,N,02009.40247,E,12.172,135.83,190819,,,A*49
$GNVTG,135.83,T,,M,12.172,N,22.542,K,A*2B
$GNGGA,085846.50,4612.66241,N,02009.40247,E,1,12,0.60,147.8,M,37.6,M,,*45
$GNRMC,085846.80,A,4612.66162,N,02009.40361,E,12.929,134.36,190819,,,A*4A
$GNVTG,134.36,T,,M,12.929,N,23.944,K,A*29
$GNGGA,085846.80,4612.66162,N,02009.40361,E,1,12,0.60,149.3,M,37.6,M,,*4A
$GNRMC,085847.10,A,4612.66085,N,02009.40482,E,13.400,132.31,190819,,,A*46
$GNVTG,132.31,T,,M,13.400,N,24.816,K,A*2E
$GNGGA,085847.10,4612.66085,N,02009.40482,E,1,12,0.60,150.9,M,37.6,M,,*42
$GNRMC,085847.40,A,4612.66002,N,02009.40611,E,14.093,132.29,190819,,,A*44
$GNVTG,132.29,T,,M,14.093,N,26.101,K,A*23
$GNGGA,085847.40,4612.66002,N,02009.40611,E,1,12,0.60,152.8,M,37.6,M,,*43
$GNRMC,085847.70,A,4612.65917,N,02009.40744,E,14.699,132.08,190819,,,A*47
$GNVTG,132.08,T,,M,14.699,N,27.223,K,A*2E
$GNGGA,085847.70,4612.65917,N,02009.40744,E,1,12,0.60,154.6,M,37.6,M,,*47
$GNRMC,085848.00,A,4612.65831,N,02009.40885,E,15.217,130.71,190819,,,A*47
$GNVTG,130.71,T,,M,15.217,N,28.182,K,A*26
$GNGGA,085848.00,4612.65831,N,02009.40885,E,1,12,0.60,156.5,M,37.6,M,,*49
$GNRMC,085848.30,A,4612.65743,N,02009.41031,E,15.891,130.26,190819,,,A*4E
$GNVTG,130.26,T,,M,15.891,N,29.430,K,A*2D
$GNGGA,085848.30,4612.65743,N,02009.41031,E,1,12,0.60,158.2,M,37.6,M,,*4F
$GNRMC,085848.60,A,4612.65653,N,02009.41186,E,16.494,129.41,190819,,,A*45
$GNVTG,129.41,T,,M,16.494,N,30.546,K,A*26
$GNGGA,085848.60,4612.65653,N,02009.41186,E,1,12,0.60,160.0,M,37.6,M,,*4E
$GNRMC,085848.90,A,4612.65562,N,02009.41346,E,17.075,128.67,190819,,,A*4A
$GNVTG,128.67,T,,M,17.075,N,31.623,K,A*28
$GNGGA,085848.90,4612.65562,N,02009.41346,E,1,12,0.60,161.8,M,37.6,M,,*47
$GNRMC,085849.20,A,4612.65469,N,02009.41515,E,17.730,127.84,190819,,,A*4E
$GNVTG,127.84,T,,M,17.730,N,32.836,K,A*25
$GNGGA,085849.20,4612.65469,N,02009.41515,E,1,12,0.60,163.6,M,37.6,M,,*4B
$GNRMC,085849.50,A,4612.65375,N,02009.41688,E,18.115,127.42,190819,,,A*40
$GNVTG,127.42,T,,M,18.115,N,33.548,K,A*24
$GNGGA,085849.50,4612.65375,N,02009.41688,E,1,12,0.60,165.4,M,37.6,M,,*45
$GNRMC,085849.80,A,4612.65281,N,02009.41861,E,18.236,127.52,190819,,,A*4D
$GNVTG,127.52,T,,M,18.236,N,33.773,K,A*2D
$GNGGA,085849.80,4612.65281,N,02009.41861,E,1,12,0.59,167.2,M,37.6,M,,*45
$GNRMC,085850.10,A,4612.65183,N,02009.42037,E,18.648,128.09,190819,,,A*49
$GNVTG,128.09,T,,M,18.648,N,34.537,K,A*24
$GNGGA,085850.10,4612.65183,N,02009.42037,E,1,12,0.59,168.9,M,37.6,M,,*49
$GNRMC,085850.40,A,4612.65084,N,02009.42210,E,18.694,128.76,190819,,,A*44
$GNVTG,128.76,T,,M,18.694,N,34.622,K,A*2A
$GNGGA,085850.40,4612.65084,N,02009.42210,E,1,12,0.59,170.7,M,37.6,M,,*4A
$GNRMC,085850.70,A,4612.64984,N,02009.42383,E,18.644,128.95,190819,,,A*44
$GNVTG,128.95,T,,M,18.644,N,34.528,K,A*23
$GNGGA,085850.70,4612.64984,N,02009.42383,E,1,12,0.59,172.5,M,37.6,M,,*4A
$GNRMC,085851.00,A,4612.64885,N,02009.42554,E,18.514,129.46,190819,,,A*47
$GNVTG,129.46,T,,M,18.514,N,34.288,K,A*27
$GNGGA,085851.00,4612.64885,N,02009.42554,E,1,12,0.59,174.3,M,37.6,M,,*40
$GNRMC,085851.30,A,4612.64787,N,02009.42720,E,18.232,129.67,190819,,,A*48
$GNVTG,129.67,T,,M,18.232,N,33.766,K,A*25
$GNGGA,085851.30,4612.64787,N,02009.42720,E,1,12,0.59,175.9,M,37.6,M,,*44
$GNRMC,085851.60,A,4612.64693,N,02009.42887,E,18.176,128.87,190819,,,A*47
$GNVTG,128.87,T,,M,18.176,N,33.662,K,A*2C
$GNGGA,085851.60,4612.64693,N,02009.42887,E,1,12,0.59,177.4,M,37.6,M,,*48
$GNRMC,085851.90,A,4612.64596,N,02009.43051,E,18.205,129.82,190819,,,A*4F
$GNVTG,129.82,T,,M,18.205,N,33.715,K,A*2E
$GNGGA,085851.90,4612.64596,N,02009.43051,E,1,12,0.59,178.8,M,37.6,M,,*40
$GNRMC,085852.20,A,4612.64498,N,02009.43209,E,17.983,131.10,190819,,,A*4F
$GNVTG,131.10,T,,M,17.983,N,33.305,K,A*23
$GNGGA,085852.20,4612.64498,N,02009.43209,E,1,12,0.59,180.0,M,37.6,M,,*47
$GNRMC,085852.50,A,4612.64398,N,02009.43365,E,18.144,132.22,190819,,,A*4A
$GNVTG,132.22,T,,M,18.144,N,33.603,K,A*2E
$GNGGA,085852.50,4612.64398,N,02009.43365,E,1,12,0.59,180.9,M,37.6,M,,*45
$GNRMC,085852.80,A,4612.64292,N,02009.43513,E,18.482,134.94,190819,,,A*4F
$GNVTG,134.94,T,,M,18.482,N,34.229,K,A*21
$GNGGA,085852.80,4612.64292,N,02009.43513,E,1,12,0.59,181.4,M,37.6,M,,*48
$GNRMC,085853.10,A,4612.64185,N,02009.43660,E,18.547,135.61,190819,,,A*46
$GNVTG,135.61,T,,M,18.547,N,34.348,K,A*24
$GNGGA,085853.10,4612.64185,N,02009.43660,E,1,12,0.59,181.8,M,37.6,M,,*4E
$GNRMC,085853.40,A,4612.64078,N,02009.43805,E,18.482,136.25,190819,,,A*46
$GNVTG,136.25,T,,M,18.482,N,34.229,K,A*29
$GNGGA,085853.40,4612.64078,N,02009.43805,E,1,12,0.59,182.1,M,37.6,M,,*4F
$GNRMC,085853.70,A,4612.63966,N,02009.43948,E,18.734,137.46,190819,,,A*46
$GNVTG,137.46,T,,M,18.734,N,34.696,K,A*23
$GNGGA,085853.70,4612.63966,N,02009.43948,E,1,12,0.59,182.4,M,37.6,M,,*40
$GNRMC,085854.00,A,4612.63855,N,02009.44085,E,18.289,138.68,190819,,,A*48
$GNVTG,138.68,T,,M,18.289,N,33.871,K,A*23
$GNGGA,085854.00,4612.63855,N,02009.44085,E,1,12,0.59,182.6,M,37.6,M,,*4C
$GNRMC,085854.30,A,4612.63740,N,02009.44217,E,18.214,140.51,190819,,,A*48
$GNVTG,140.51,T,,M,18.214,N,33.731,K,A*29
$GNGGA,085854.30,4612.63740,N,02009.44217,E,1,12,0.63,182.8,M,37.6,M,,*4A
$GNRMC,085854.60,A,4612.63625,N,02009.44348,E,18.203,141.25,190819,,,A*40
$GNVTG,141.25,T,,M,18.203,N,33.712,K,A*2C
$GNGGA,085854.60,4612.63625,N,02009.44348,E,1,12,0.63,183.0,M,37.6,M,,*4F
$GNRMC,085854.90,A,4612.63505,N,02009.44474,E,18.121,142.91,190819,,,A*49
$GNVTG,142.91,T,,M,18.121,N,33.560,K,A*24
$GNGGA,085854.90,4612.63505,N,02009.44474,E,1,12,0.63,183.3,M,37.6,M,,*4A
$GNRMC,085855.20,A,4612.63386,N,02009.44597,E,18.035,143.82,190819,,,A*45
$GNVTG,143.82,T,,M,18.035,N,33.401,K,A*25
$GNGGA,085855.20,4612.63386,N,02009.44597,E,1,12,0.63,183.6,M,37.6,M,,*44
$GNRMC,085855.50,A,4612.63263,N,02009.44721,E,18.199,144.50,190819,,,A*48
$GNVTG,144.50,T,,M,18.199,N,33.705,K,A*2D
$GNGGA,085855.50,4612.63263,N,02009.44721,E,1,12,0.63,183.9,M,37.6,M,,*49
$GNRMC,085855.80,A,4612.63144,N,02009.44843,E,17.955,144.25,190819,,,A*4D
$GNVTG,144.25,T,,M,17.955,N,33.252,K,A*2F
$GNGGA,085855.80,4612.63144,N,02009.44843,E,1,12,0.63,184.2,M,37.6,M,,*45
$GNRMC,085856.10,A,4612.63022,N,02009.44964,E,17.938,144.93,190819,,,A*44
$GNVTG,144.93,T,,M,17.938,N,33.221,K,A*2D
$GNGGA,085856.10,4612.63022,N,02009.44964,E,1,12,0.63,184.5,M,37.6,M,,*4D
$GNRMC,085856.40,A,4612.62898,N,02009.45083,E,17.944,145.94,190819,,,A*45
$GNVTG,145.94,T,,M,17.944,N,33.233,K,A*23
$GNGGA,085856.40,4612.62898,N,02009.45083,E,1,12,0.63,184.9,M,37.6,M,,*4D
$GNRMC,085856.70,A,4612.62773,N,02009.45201,E,18.069,146.72,190819,,,A*46
$GNVTG,146.72,T,,M,18.069,N,33.464,K,A*25
$GNGGA,085856.70,4612.62773,N,02009.45201,E,1,12,0.63,185.4,M,37.6,M,,*40
$GNRMC,085857.00,A,4612.62650,N,02009.45316,E,17.741,146.83,190819,,,A*4B
$GNVTG,146.83,T,,M,17.741,N,32.856,K,A*25
$GNGGA,085857.00,4612.62650,N,02009.45316,E,1,12,0.63,185.7,M,37.6,M,,*42
$GNRMC,085857.30,A,4612.62527,N,02009.45426,E,17.550,147.84,190819,,,A*4B
$GNVTG,147.84,T,,M,17.550,N,32.504,K,A*2B
$GNGGA,085857.30,4612.62527,N,02009.45426,E,1,12,0.63,186.0,M,37.6,M,,*42
$GNRMC,085857.60,A,4612.62401,N,02009.45535,E,17.510,148.61,190819,,,A*48
$GNVTG,148.61,T,,M,17.510,N,32.429,K,A*25
$GNGGA,085857.60,4612.62401,N,02009.45535,E,1,12,0.63,186.4,M,37.6,M,,*45
$GNRMC,085857.90,A,4612.62274,N,02009.45640,E,17.437,149.80,190819,,,A*48
$GNVTG,149.80,T,,M,17.437,N,32.294,K,A*2F
$GNGGA,085857.90,4612.62274,N,02009.45640,E,1,12,0.63,187.0,M,37.6,M,,*4A
$GNRMC,085858.20,A,4612.62146,N,02009.45746,E,17.507,149.98,190819,,,A*42
$GNVTG,149.98,T,,M,17.507,N,32.422,K,A*2F
$GNGGA,085858.20,4612.62146,N,02009.45746,E,1,12,0.63,187.6,M,37.6,M,,*4D
$GNRMC,085858.50,A,4612.62018,N,02009.45851,E,17.544,150.24,190819,,,A*4E
$GNVTG,150.24,T,,M,17.544,N,32.492,K,A*2C
$GNGGA,085858.50,4612.62018,N,02009.45851,E,1,12,0.63,188.1,M,37.6,M,,*41
$GNRMC,085858.80,A,4612.61893,N,02009.45953,E,17.274,150.31,190819,,,A*48
$GNVTG,150.31,T,,M,17.274,N,31.991,K,A*21
$GNGGA,085858.80,4612.61893,N,02009.45953,E,1,12,0.63,188.6,M,37.6,M,,*40
$GNRMC,085859.10,A,4612.61766,N,02009.46053,E,17.127,151.03,190819,,,A*4A
$GNVTG,151.03,T,,M,17.127,N,31.719,K,A*2A
$GNGGA,085859.10,4612.61766,N,02009.46053,E,1,12,0.63,189.3,M,37.6,M,,*43
$GNRMC,085859.40,A,4612.61639,N,02009.46156,E,17.349,150.36,190819,,,A*4D
$GNVTG,150.36,T,,M,17.349,N,32.131,K,A*28
$GNGGA,085859.40,4612.61639,N,02009.46156,E,1,12,0.63,189.8,M,37.6,M,,*42
$GNRMC,085859.70,A,4612.61513,N,02009.46258,E,17.236,150.41,190819,,,A*41
$GNVTG,150.41,T,,M,17.236,N,31.921,K,A*2B
$GNGGA,085859.70,4612.61513,N,02009.46258,E,1,12,0.63,190.3,M,37.6,M,,*44
$GNRMC,085900.00,A,4612.61393,N,02009.46357,E,16.870,149.95,190819,,,A*43
$GNVTG,149.95,T,,M,16.870,N,31.243,K,A*2C
$GNGGA,085900.00,4612.61393,N,02009.46357,E,1,12,0.63,190.7,M,37.6,M,,*4A
$GNRMC,085900.30,A,4612.61270,N,02009.46456,E,16.857,150.35,190819,,,A*4D
$GNVTG,150.35,T,,M,16.857,N,31.218,K,A*25
$GNGGA,085900.30,4612.61270,N,02009.46456,E,1,12,0.63,191.1,M,37.6,M,,*44
$GNRMC,085900.60,A,4612.61147,N,02009.46554,E,16.835,150.82,190819,,,A*44
$GNVTG,150.82,T,,M,16.835,N,31.179,K,A*29
$GNGGA,085900.60,4612.61147,N,02009.46554,E,1,12,0.63,191.5,M,37.6,M,,*41
$GNRMC,085900.90,A,4612.61023,N,02009.46648,E,16.609,151.59,190819,,,A*40
$GNVTG,151.59,T,,M,16.609,N,30.759,K,A*2A
$GNGGA,085900.90,4612.61023,N,02009.46648,E,1,12,0.63,191.9,M,37.6,M,,*4F
$GNRMC,085901.20,A,4612.60898,N,02009.46743,E,16.880,151.61,190819,,,A*4D
$GNVTG,151.61,T,,M,16.880,N,31.261,K,A*21
$GNGGA,085901.20,4612.60898,N,02009.46743,E,1,12,0.63,192.3,M,37.6,M,,*4F
$GNRMC,085901.50,A,4612.60773,N,02009.46842,E,17.017,151.13,190819,,,A*4C
$GNVTG,151.13,T,,M,17.017,N,31.516,K,A*24
$GNGGA,085901.50,4612.60773,N,02009.46842,E,1,12,0.64,192.8,M,37.6,M,,*40
$GNRMC,085901.80,A,4612.60648,N,02009.46940,E,16.935,151.07,190819,,,A*46
$GNVTG,151.07,T,,M,16.935,N,31.364,K,A*2A
$GNGGA,085901.80,4612.60648,N,02009.46940,E,1,12,0.64,193.3,M,37.6,M,,*4D
$GNRMC,085902.10,A,4612.60523,N,02009.47041,E,17.083,150.73,190819,,,A*4C
$GNVTG,150.73,T,,M,17.083,N,31.637,K,A*2E
$GNGGA,085902.10,4612.60523,N,02009.47041,E,1,12,0.64,193.9,M,37.6,M,,*4A
$GNRMC,085902.40,A,4612.60398,N,02009.47145,E,17.114,150.00,190819,,,A*41
$GNVTG,150.00,T,,M,17.114,N,31.696,K,A*2E
$GNGGA,085902.40,4612.60398,N,02009.47145,E,1,12,0.64,194.5,M,37.6,M,,*47
$GNRMC,085902.70,A,4612.60274,N,02009.47254,E,17.242,148.59,190819,,,A*47
$GNVTG,148.59,T,,M,17.242,N,31.932,K,A*2A
$GNGGA,085902.70,4612.60274,N,02009.47254,E,1,12,0.64,195.1,M,37.6,M,,*41
$GNRMC,085903.00,A,4612.60152,N,02009.47364,E,17.143,147.50,190819,,,A*40
$GNVTG,147.50,T,,M,17.143,N,31.748,K,A*2D
$GNGGA,085903.00,4612.60152,N,02009.47364,E,1,12,0.64,195.7,M,37.6,M,,*44
$GNRMC,085903.30,A,4612.60032,N,02009.47478,E,17.162,146.45,190819,,,A*48
$GNVTG,146.45,T,,M,17.162,N,31.783,K,A*2C
$GNGGA,085903.30,4612.60032,N,02009.47478,E,1,12,0.64,196.3,M,37.6,M,,*4D
$GNRMC,085903.60,A,4612.59916,N,02009.47597,E,17.040,144.79,190819,,,A*44
$GNVTG,144.79,T,,M,17.040,N,31.558,K,A*24
$GNGGA,085903.60,4612.59916,N,02009.47597,E,1,12,0.64,196.9,M,37.6,M,,*47
$GNRMC,085903.90,A,4612.59801,N,02009.47714,E,16.895,144.50,190819,,,A*4F
$GNVTG,144.50,T,,M,16.895,N,31.289,K,A*25
$GNGGA,085903.90,4612.59801,N,02009.47714,E,1,12,0.64,197.4,M,37.6,M,,*4A
$GNRMC,085904.20,A,4612.59689,N,02009.47834,E,16.856,143.66,190819,,,A*4D
$GNVTG,143.66,T,,M,16.856,N,31.217,K,A*2F
$GNGGA,085904.20,4612.59689,N,02009.47834,E,1,12,0.64,198.0,M,37.6,M,,*4E
$GNRMC,085904.50,A,4612.59574,N,02009.47957,E,17.087,143.17,190819,,,A*4C
$GNVTG,143.17,T,,M,17.087,N,31.646,K,A*2C
$GNGGA,085904.50,4612.59574,N,02009.47957,E,1,12,0.60,198.6,M,37.6,M,,*4E
$GNRMC,085904.80,A,4612.59461,N,02009.48081,E,16.854,142.38,190819,,,A*42
$GNVTG,142.38,T,,M,16.854,N,31.213,K,A*23
$GNGGA,085904.80,4612.59461,N,02009.48081,E,1,12,0.60,199.2,M,37.6,M,,*4E
$GNRMC,085905.10,A,4612.59347,N,02009.48207,E,17.043,142.17,190819,,,A*47
$GNVTG,142.17,T,,M,17.043,N,31.564,K,A*26
$GNGGA,085905.10,4612.59347,N,02009.48207,E,1,12,0.60,199.9,M,37.6,M,,*42
$GNRMC,085905.40,A,4612.59235,N,02009.48336,E,17.062,141.44,190819,,,A*43
$GNVTG,141.44,T,,M,17.062,N,31.599,K,A*22
$GNGGA,085905.40,4612.59235,N,02009.48336,E,1,12,0.60,200.5,M,37.6,M,,*4F
$GNRMC,085905.70,A,4612.59122,N,02009.48467,E,17.293,140.99,190819,,,A*4B
$GNVTG,140.99,T,,M,17.293,N,32.027,K,A*2C
$GNGGA,085905.70,4612.59122,N,02009.48467,E,1,12,0.60,201.1,M,37.6,M,,*4F
$GNRMC,085906.00,A,4612.59010,N,02009.48601,E,17.345,140.17,190819,,,A*41
$GNVTG,140.17,T,,M,17.345,N,32.122,K,A*24
$GNGGA,085906.00,4612.59010,N,02009.48601,E,1,12,0.60,201.7,M,37.6,M,,*4F
$GNRMC,085906.30,A,4612.58897,N,02009.48737,E,17.474,140.02,190819,,,A*41
$GNVTG,140.02,T,,M,17.474,N,32.362,K,A*23
$GNGGA,085906.30,4612.58897,N,02009.48737,E,1,12,0.60,202.4,M,37.6,M,,*4E
$GNRMC,085906.60,A,4612.58786,N,02009.48878,E,17.734,138.52,190819,,,A*42
$GNVTG,138.52,T,,M,17.734,N,32.843,K,A*26
$GNGGA,085906.60,4612.58786,N,02009.48878,E,1,12,0.60,202.9,M,37.6,M,,*4D
$GNRMC,085906.90,A,4612.58673,N,02009.49022,E,17.961,138.34,190819,,,A*4E
$GNVTG,138.34,T,,M,17.961,N,33.263,K,A*21
$GNGGA,085906.90,4612.58673,N,02009.49022,E,1,12,0.60,203.4,M,37.6,M,,*43
$GNRMC,085907.20,A,4612.58559,N,02009.49165,E,18.109,138.49,190819,,,A*4E
$GNVTG,138.49,T,,M,18.109,N,33.538,K,A*2B
$GNGGA,085907.20,4612.58559,N,02009.49165,E,1,12,0.60,204.0,M,37.6,M,,*43
$GNRMC,085907.50,A,4612.58442,N,02009.49315,E,18.614,138.22,190819,,,A*41
$GNVTG,138.22,T,,M,18.614,N,34.474,K,A*23
$GNGGA,085907.50,4612.58442,N,02009.49315,E,1,12,0.60,204.6,M,37.6,M,,*4C
$GNRMC,085907.80,A,4612.58325,N,02009.49463,E,18.609,138.18,190819,,,A*49
$GNVTG,138.18,T,,M,18.609,N,34.464,K,A*27
$GNGGA,085907.80,4612.58325,N,02009.49463,E,1,12,0.60,205.1,M,37.6,M,,*47
$GNRMC,085908.10,A,4612.58203,N,02009.49615,E,19.079,138.85,190819,,,A*4D
$GNVTG,138.85,T,,M,19.079,N,35.335,K,A*21
$GNGGA,085908.10,4612.58203,N,02009.49615,E,1,12,0.60,205.9,M,37.6,M,,*4F
$GNRMC,085908.40,A,4612.58082,N,02009.49766,E,19.199,138.78,190819,,,A*4B
$GNVTG,138.78,T,,M,19.199,N,35.557,K,A*2E
$GNGGA,085908.40,4612.58082,N,02009.49766,E,1,12,0.60,206.4,M,37.6,M,,*4A
$GNRMC,085908.70,A,4612.57961,N,02009.49920,E,19.345,138.40,190819,,,A*47
$GNVTG,138.40,T,,M,19.345,N,35.827,K,A*2C
$GNGGA,085908.70,4612.57961,N,02009.49920,E,1,12,0.60,207.0,M,37.6,M,,*4B
$GNRMC,085909.00,A,4612.57839,N,02009.50074,E,19.508,138.74,190819,,,A*45
$GNVTG,138.74,T,,M,19.508,N,36.130,K,A*28
$GNGGA,085909.00,4612.57839,N,02009.50074,E,1,12,0.64,207.5,M,37.6,M,,*40
$GNRMC,085909.30,A,4612.57714,N,02009.50232,E,19.797,138.60,190819,,,A*47
$GNVTG,138.60,T,,M,19.797,N,36.664,K,A*2F
$GNGGA,085909.30,4612.57714,N,02009.50232,E,1,12,0.64,208.2,M,37.6,M,,*4B
$GNRMC,085909.60,A,4612.57589,N,02009.50387,E,19.740,138.77,190819,,,A*47
$GNVTG,138.77,T,,M,19.740,N,36.558,K,A*2F
$GNGGA,085909.60,4612.57589,N,02009.50387,E,1,12,0.64,208.8,M,37.6,M,,*4D
$GNRMC,085909.90,A,4612.57466,N,02009.50543,E,19.748,138.56,190819,,,A*4D
$GNVTG,138.56,T,,M,19.748,N,36.574,K,A*2A
$GNGGA,085909.90,4612.57466,N,02009.50543,E,1,12,0.64,209.3,M,37.6,M,,*46
$GNRMC,085910.20,A,4612.57340,N,02009.50699,E,19.841,139.03,190819,,,A*4E
$GNVTG,139.03,T,,M,19.841,N,36.746,K,A*2E
$GNGGA,085910.20,4612.57340,N,02009.50699,E,1,12,0.64,210.0,M,37.6,M,,*49
$GNRMC,085910.50,A,4612.57213,N,02009.50856,E,19.927,139.01,190819,,,A*40
$GNVTG,139.01,T,,M,19.927,N,36.904,K,A*25
$GNGGA,085910.50,4612.57213,N,02009.50856,E,1,12,0.64,210.8,M,37.6,M,,*4C
$GNRMC,085910.80,A,4612.57086,N,02009.51012,E,19.828,139.07,190819,,,A*42
$GNVTG,139.07,T,,M,19.828,N,36.721,K,A*24
$GNGGA,085910.80,4612.57086,N,02009.51012,E,1,12,0.64,211.6,M,37.6,M,,*49
$GNRMC,085911.10,A,4612.56961,N,02009.51170,E,19.935,138.61,190819,,,A*42
$GNVTG,138.61,T,,M,19.935,N,36.920,K,A*27
$GNGGA,085911.10,4612.56961,N,02009.51170,E,1,12,0.60,212.2,M,37.6,M,,*46
$GNRMC,085911.40,A,4612.56834,N,02009.51327,E,19.975,138.68,190819,,,A*4B
$GNVTG,138.68,T,,M,19.975,N,36.994,K,A*25
$GNGGA,085911.40,4612.56834,N,02009.51327,E,1,12,0.60,212.9,M,37.6,M,,*49
$GNRMC,085911.70,A,4612.56705,N,02009.51486,E,20.257,138.95,190819,,,A*4A
$GNVTG,138.95,T,,M,20.257,N,37.516,K,A*21
$GNGGA,085911.70,4612.56705,N,02009.51486,E,1,12,0.60,213.5,M,37.6,M,,*46
$GNRMC,085912.00,A,4612.56577,N,02009.51646,E,20.267,138.74,190819,,,A*4B
$GNVTG,138.74,T,,M,20.267,N,37.535,K,A*2C
$GNGGA,085912.00,4612.56577,N,02009.51646,E,1,12,0.60,214.2,M,37.6,M,,*4B
$GNRMC,085912.30,A,4612.56449,N,02009.51804,E,20.213,138.95,190819,,,A*40
$GNVTG,138.95,T,,M,20.213,N,37.434,K,A*20
$GNGGA,085912.30,4612.56449,N,02009.51804,E,1,12,0.60,214.8,M,37.6,M,,*46
$GNRMC,085912.60,A,4612.56321,N,02009.51962,E,20.177,138.96,190819,,,A*4F
$GNVTG,138.96,T,,M,20.177,N,37.367,K,A*23
$GNGGA,085912.60,4612.56321,N,02009.51962,E,1,12,0.60,215.4,M,37.6,M,,*46
$GNRMC,085912.90,A,4612.56191,N,02009.52121,E,20.227,139.01,190819,,,A*4C
$GNVTG,139.01,T,,M,20.227,N,37.461,K,A*2B
$GNGGA,085912.90,4612.56191,N,02009.52121,E,1,12,0.60,216.2,M,37.6,M,,*49
$GNRMC,085913.20,A,4612.56061,N,02009.52275,E,20.090,140.07,190819,,,A*4C
$GNVTG,140.07,T,,M,20.090,N,37.206,K,A*2A
$GNGGA,085913.20,4612.56061,N,02009.52275,E,1,12,0.60,216.9,M,37.6,M,,*44
$GNRMC,085913.50,A,4612.55932,N,02009.52432,E,20.031,139.31,190819,,,A*42
$GNVTG,139.31,T,,M,20.031,N,37.097,K,A*20
$GNGGA,085913.50,4612.55932,N,02009.52432,E,1,12,0.60,217.6,M,37.6,M,,*44
$GNRMC,085913.80,A,4612.55805,N,02009.52587,E,20.088,139.32,190819,,,A*44
$GNVTG,139.32,T,,M,20.088,N,37.202,K,A*2F
$GNGGA,085913.80,4612.55805,N,02009.52587,E,1,12,0.59,218.2,M,37.6,M,,*42
$GNRMC,085914.10,A,4612.55676,N,02009.52743,E,20.011,139.39,190819,,,A*41
$GNVTG,139.39,T,,M,20.011,N,37.061,K,A*23
$GNGGA,085914.10,4612.55676,N,02009.52743,E,1,12,0.59,218.9,M,37.6,M,,*47
$GNRMC,085914.40,A,4612.55548,N,02009.52897,E,20.052,139.52,190819,,,A*46
$GNVTG,139.52,T,,M,20.052,N,37.136,K,A*2A
$GNGGA,085914.40,4612.55548,N,02009.52897,E,1,12,0.59,219.4,M,37.6,M,,*46
$GNRMC,085914.70,A,4612.55420,N,02009.53051,E,19.949,139.68,190819,,,A*49
$GNVTG,139.68,T,,M,19.949,N,36.946,K,A*24
$GNGGA,085914.70,4612.55420,N,02009.53051,E,1,12,0.59,220.1,M,37.6,M,,*46
$GNRMC,085915.00,A,4612.55291,N,02009.53202,E,19.856,140.08,190819,,,A*40
$GNVTG,140.08,T,,M,19.856,N,36.773,K,A*2B
$GNGGA,085915.00,4612.55291,N,02009.53202,E,1,12,0.59,220.7,M,37.6,M,,*4E
$GNRMC,085915.30,A,4612.55164,N,02009.53352,E,19.542,140.20,190819,,,A*4C
$GNVTG,140.20,T,,M,19.542,N,36.192,K,A*20
$GNGGA,085915.30,4612.55164,N,02009.53352,E,1,12,0.60,221.5,M,37.6,M,,*49
$GNRMC,085915.60,A,4612.55040,N,02009.53500,E,19.266,140.12,190819,,,A*4F
$GNVTG,140.12,T,,M,19.266,N,35.680,K,A*27
$GNGGA,085915.60,4612.55040,N,02009.53500,E,1,12,0.64,222.2,M,37.6,M,,*4A
$GNRMC,085915.90,A,4612.54914,N,02009.53650,E,19.514,140.02,190819,,,A*4C
$GNVTG,140.02,T,,M,19.514,N,36.140,K,A*2C
$GNGGA,085915.90,4612.54914,N,02009.53650,E,1,12,0.64,222.8,M,37.6,M,,*40
$GNRMC,085916.20,A,4612.54784,N,02009.53801,E,20.003,140.61,190819,,,A*45
$GNVTG,140.61,T,,M,20.003,N,37.045,K,A*25
$GNGGA,085916.20,4612.54784,N,02009.53801,E,1,12,0.64,223.3,M,37.6,M,,*4F
$GNRMC,085916.50,A,4612.54648,N,02009.53955,E,20.884,141.29,190819,,,A*49
$GNVTG,141.29,T,,M,20.884,N,38.677,K,A*27
$GNGGA,085916.50,4612.54648,N,02009.53955,E,1,12,0.63,223.4,M,37.6,M,,*49
$GNRMC,085916.80,A,4612.54503,N,02009.54117,E,22.134,141.91,190819,,,A*42
$GNVTG,141.91,T,,M,22.134,N,40.992,K,A*2F
$GNGGA,085916.80,4612.54503,N,02009.54117,E,1,12,0.59,223.4,M,37.6,M,,*48
$GNRMC,085917.10,A,4612.54354,N,02009.54283,E,23.085,142.32,190819,,,A*40
$GNVTG,142.32,T,,M,23.085,N,42.754,K,A*29
$GNGGA,085917.10,4612.54354,N,02009.54283,E,1,12,0.63,223.3,M,37.6,M,,*44
$GNRMC,085917.40,A,4612.54203,N,02009.54459,E,23.840,141.28,190819,,,A*4E
$GNVTG,141.28,T,,M,23.840,N,44.152,K,A*26
$GNGGA,085917.40,4612.54203,N,02009.54459,E,1,12,0.59,222.9,M,37.6,M,,*41
$GNRMC,085917.70,A,4612.54048,N,02009.54632,E,24.205,142.01,190819,,,A*4B
$GNVTG,142.01,T,,M,24.205,N,44.828,K,A*26
$GNGGA,085917.70,4612.54048,N,02009.54632,E,1,12,0.63,222.5,M,37.6,M,,*45
$GNRMC,085918.00,A,4612.53894,N,02009.54807,E,24.224,141.85,190819,,,A*49
$GNVTG,141.85,T,,M,24.224,N,44.864,K,A*22
$GNGGA,085918.00,4612.53894,N,02009.54807,E,1,12,0.63,222.0,M,37.6,M,,*4E
$GNRMC,085918.30,A,4612.53741,N,02009.54979,E,23.990,141.86,190819,,,A*45
$GNVTG,141.86,T,,M,23.990,N,44.430,K,A*2F
$GNGGA,085918.30,4612.53741,N,02009.54979,E,1,12,0.63,221.4,M,37.6,M,,*45
$GNRMC,085918.60,A,4612.53585,N,02009.55153,E,24.289,142.23,190819,,,A*43
$GNVTG,142.23,T,,M,24.289,N,44.983,K,A*22
$GNGGA,085918.60,4612.53585,N,02009.55153,E,1,12,0.64,220.8,M,37.6,M,,*41
$GNRMC,085918.90,A,4612.53430,N,02009.55328,E,24.360,142.13,190819,,,A*48
$GNVTG,142.13,T,,M,24.360,N,45.115,K,A*21
$GNGGA,085918.90,4612.53430,N,02009.55328,E,1,12,0.63,220.1,M,37.6,M,,*41
$GNRMC,085919.20,A,4612.53277,N,02009.55503,E,24.319,142.00,190819,,,A*44
$GNVTG,142.00,T,,M,24.319,N,45.039,K,A*22
$GNGGA,085919.20,4612.53277,N,02009.55503,E,1,12,0.63,219.3,M,37.6,M,,*49
$GNRMC,085919.50,A,4612.53125,N,02009.55678,E,24.165,141.50,190819,,,A*47
$GNVTG,141.50,T,,M,24.165,N,44.753,K,A*27
$GNGGA,085919.50,4612.53125,N,02009.55678,E,1,12,0.63,218.4,M,37.6,M,,*43
$GNRMC,085919.80,A,4612.52973,N,02009.55853,E,23.984,141.35,190819,,,A*44
$GNVTG,141.35,T,,M,23.984,N,44.419,K,A*29
$GNGGA,085919.80,4612.52973,N,02009.55853,E,1,12,0.63,217.6,M,37.6,M,,*4E
$GNRMC,085920.10,A,4612.52822,N,02009.56026,E,23.734,141.31,190819,,,A*4A
$GNVTG,141.31,T,,M,23.734,N,43.956,K,A*29
$GNGGA,085920.10,4612.52822,N,02009.56026,E,1,12,0.63,216.7,M,37.6,M,,*41
$GNRMC,085920.40,A,4612.52674,N,02009.56197,E,23.475,141.21,190819,,,A*4E
$GNVTG,141.21,T,,M,23.475,N,43.476,K,A*21
$GNGGA,085920.40,4612.52674,N,02009.56197,E,1,12,0.63,215.7,M,37.6,M,,*41
$GNRMC,085920.70,A,4612.52528,N,02009.56364,E,23.309,141.41,190819,,,A*43
$GNVTG,141.41,T,,M,23.309,N,43.168,K,A*21
$GNGGA,085920.70,4612.52528,N,02009.56364,E,1,12,0.63,214.5,M,37.6,M,,*45
$GNRMC,085921.00,A,4612.52384,N,02009.56530,E,22.765,141.12,190819,,,A*4B
$GNVTG,141.12,T,,M,22.765,N,42.161,K,A*20
$GNGGA,085921.00,4612.52384,N,02009.56530,E,1,12,0.64,213.4,M,37.6,M,,*45
$GNRMC,085921.30,A,4612.52240,N,02009.56694,E,22.525,141.56,190819,,,A*4A
$GNVTG,141.56,T,,M,22.525,N,41.716,K,A*23
$GNGGA,085921.30,4612.52240,N,02009.56694,E,1,12,0.64,212.4,M,37.6,M,,*43
$GNRMC,085921.60,A,4612.52096,N,02009.56854,E,22.157,142.02,190819,,,A*47
$GNVTG,142.02,T,,M,22.157,N,41.034,K,A*27
$GNGGA,085921.60,4612.52096,N,02009.56854,E,1,12,0.64,211.6,M,37.6,M,,*4C
$GNRMC,085921.90,A,4612.51955,N,02009.57009,E,21.504,142.22,190819,,,A*4F
$GNVTG,142.22,T,,M,21.504,N,39.825,K,A*23
$GNGGA,085921.90,4612.51955,N,02009.57009,E,1,12,0.63,210.8,M,37.6,M,,*4F
$GNRMC,085922.20,A,4612.51815,N,02009.57161,E,20.935,142.62,190819,,,A*46
$GNVTG,142.62,T,,M,20.935,N,38.771,K,A*27
$GNGGA,085922.20,4612.51815,N,02009.57161,E,1,12,0.63,210.3,M,37.6,M,,*46
$GNRMC,085922.50,A,4612.51681,N,02009.57308,E,20.376,142.33,190819,,,A*46
$GNVTG,142.33,T,,M,20.376,N,37.736,K,A*22
$GNGGA,085922.50,4612.51681,N,02009.57308,E,1,12,0.63,209.7,M,37.6,M,,*43
$GNRMC,085922.80,A,4612.51549,N,02009.57453,E,19.911,142.47,190819,,,A*47
$GNVTG,142.47,T,,M,19.911,N,36.875,K,A*29
$GNGGA,085922.80,4612.51549,N,02009.57453,E,1,12,0.63,209.2,M,37.6,M,,*45
$GNRMC,085923.10,A,4612.51419,N,02009.57596,E,19.465,142.18,190819,,,A*47
$GNVTG,142.18,T,,M,19.465,N,36.050,K,A*22
$GNGGA,085923.10,4612.51419,N,02009.57596,E,1,12,0.63,208.7,M,37.6,M,,*45
$GNRMC,085923.40,A,4612.51291,N,02009.57737,E,19.163,142.29,190819,,,A*4C
$GNVTG,142.29,T,,M,19.163,N,35.490,K,A*28
$GNGGA,085923.40,4612.51291,N,02009.57737,E,1,12,0.63,208.3,M,37.6,M,,*4B
$GNRMC,085923.70,A,4612.51165,N,02009.57876,E,18.974,142.17,190819,,,A*4F
$GNVTG,142.17,T,,M,18.974,N,35.140,K,A*22
$GNGGA,085923.70,4612.51165,N,02009.57876,E,1,12,0.63,207.8,M,37.6,M,,*4E
$GNRMC,085924.00,A,4612.51039,N,02009.58012,E,18.666,142.68,190819,,,A*46
$GNVTG,142.68,T,,M,18.666,N,34.569,K,A*28
$GNGGA,085924.00,4612.51039,N,02009.58012,E,1,12,0.63,207.4,M,37.6,M,,*4F
$GNRMC,085924.30,A,4612.50912,N,02009.58146,E,18.515,143.09,190819,,,A*45
$GNVTG,143.09,T,,M,18.515,N,34.290,K,A*28
$GNGGA,085924.30,4612.50912,N,02009.58146,E,1,12,0.59,207.2,M,37.6,M,,*42
$GNRMC,085924.60,A,4612.50787,N,02009.58277,E,18.350,143.54,190819,,,A*4C
$GNVTG,143.54,T,,M,18.350,N,33.984,K,A*2E
$GNGGA,085924.60,4612.50787,N,02009.58277,E,1,12,0.59,207.0,M,37.6,M,,*46
$GNRMC,085924.90,A,4612.50660,N,02009.58406,E,18.278,143.97,190819,,,A*4F
$GNVTG,143.97,T,,M,18.278,N,33.850,K,A*22
$GNGGA,085924.90,4612.50660,N,02009.58406,E,1,12,0.59,206.7,M,37.6,M,,*47
$GNRMC,085925.20,A,4612.50535,N,02009.58534,E,18.156,143.99,190819,,,A*47
$GNVTG,143.99,T,,M,18.156,N,33.625,K,A*2F
$GNGGA,085925.20,4612.50535,N,02009.58534,E,1,12,0.59,206.5,M,37.6,M,,*4C
$GNRMC,085925.50,A,4612.50411,N,02009.58660,E,17.909,144.00,190819,,,A*4F
$GNVTG,144.00,T,,M,17.909,N,33.168,K,A*2B
$GNGGA,085925.50,4612.50411,N,02009.58660,E,1,12,0.59,206.3,M,37.6,M,,*48
$GNRMC,085925.80,A,4612.50289,N,02009.58786,E,17.809,143.81,190819,,,A*43
$GNVTG,143.81,T,,M,17.809,N,32.982,K,A*29
$GNGGA,085925.80,4612.50289,N,02009.58786,E,1,12,0.59,206.1,M,37.6,M,,*49
$GNRMC,085926.10,A,4612.50167,N,02009.58909,E,17.629,144.41,190819,,,A*44
$GNVTG,144.41,T,,M,17.629,N,32.648,K,A*27
$GNGGA,085926.10,4612.50167,N,02009.58909,E,1,12,0.59,206.0,M,37.6,M,,*48
$GNRMC,085926.40,A,4612.50045,N,02009.59030,E,17.597,144.68,190819,,,A*4F
$GNVTG,144.68,T,,M,17.597,N,32.590,K,A*2C
$GNGGA,085926.40,4612.50045,N,02009.59030,E,1,12,0.59,205.8,M,37.6,M,,*45
$GNRMC,085926.70,A,4612.49924,N,02009.59149,E,17.333,145.10,190819,,,A*43
$GNVTG,145.10,T,,M,17.333,N,32.101,K,A*26
$GNGGA,085926.70,4612.49924,N,02009.59149,E,1,12,0.59,205.7,M,37.6,M,,*40
$GNRMC,085927.00,A,4612.49804,N,02009.59267,E,17.236,145.01,190819,,,A*4D
$GNVTG,145.01,T,,M,17.236,N,31.922,K,A*28
$GNGGA,085927.00,4612.49804,N,02009.59267,E,1,12,0.59,205.6,M,37.6,M,,*4B
$GNRMC,085927.30,A,4612.49685,N,02009.59385,E,17.217,145.29,190819,,,A*4D
$GNVTG,145.29,T,,M,17.217,N,31.886,K,A*2E
$GNGGA,085927.30,4612.49685,N,02009.59385,E,1,12,0.63,205.4,M,37.6,M,,*49
$GNRMC,085927.60,A,4612.49565,N,02009.59500,E,17.109,146.03,190819,,,A*49
$GNVTG,146.03,T,,M,17.109,N,31.687,K,A*26
$GNGGA,085927.60,4612.49565,N,02009.59500,E,1,12,0.63,205.4,M,37.6,M,,*4A
$GNRMC,085927.90,A,4612.49444,N,02009.59613,E,17.080,146.34,190819,,,A*41
$GNVTG,146.34,T,,M,17.080,N,31.633,K,A*2D
$GNGGA,085927.90,4612.49444,N,02009.59613,E,1,12,0.63,205.4,M,37.6,M,,*46
$GNRMC,085928.20,A,4612.49325,N,02009.59722,E,16.774,147.39,190819,,,A*47
$GNVTG,147.39,T,,M,16.774,N,31.066,K,A*2A
$GNGGA,085928.20,4612.49325,N,02009.59722,E,1,12,0.64,205.3,M,37.6,M,,*41
$GNRMC,085928.50,A,4612.49218,N,02009.59809,E,14.566,150.06,190819,,,A*40
$GNVTG,150.06,T,,M,14.566,N,26.977,K,A*2C
$GNGGA,085928.50,4612.49218,N,02009.59809,E,1,12,0.63,205.8,M,37.6,M,,*43
$GNRMC,085928.80,A,4612.49126,N,02009.59872,E,11.835,154.28,190819,,,A*49
$GNVTG,154.28,T,,M,11.835,N,21.919,K,A*25
$GNGGA,085928.80,4612.49126,N,02009.59872,E,1,12,0.63,206.6,M,37.6,M,,*41
$GNRMC,085929.10,A,4612.49045,N,02009.59925,E,9.852,156.81,190819,,,A*7F
$GNVTG,156.81,T,,M,9.852,N,18.245,K,A*14
$GNGGA,085929.10,4612.49045,N,02009.59925,E,1,12,0.63,207.9,M,37.6,M,,*40
$GNRMC,085929.40,A,4612.48980,N,02009.59951,E,7.582,162.12,190819,,,A*7B
$GNVTG,162.12,T,,M,7.582,N,14.042,K,A*1E
$GNGGA,085929.40,4612.48980,N,02009.59951,E,1,12,0.63,209.0,M,37.6,M,,*40
$GNRMC,085929.70,A,4612.48930,N,02009.59958,E,5.822,169.44,190819,,,A*77
$GNVTG,169.44,T,,M,5.822,N,10.781,K,A*1F
$GNGGA,085929.70,4612.48930,N,02009.59958,E,1,12,0.63,210.2,M,37.6,M,,*4B
$GNRMC,085930.00,A,4612.48886,N,02009.59959,E,4.665,178.74,190819,,,A*7A
$GNVTG,178.74,T,,M,4.665,N,8.639,K,A*2B
$GNGGA,085930.00,4612.48886,N,02009.59959,E,1,12,0.63,211.7,M,37.6,M,,*4D
$GNRMC,085930.30,A,4612.48853,N,02009.59946,E,3.757,189.35,190819,,,A*73
$GNVTG,189.35,T,,M,3.757,N,6.958,K,A*21
$GNGGA,085930.30,4612.48853,N,02009.59946,E,1,12,0.63,213.3,M,37.6,M,,*4E
$GNRMC,085930.60,A,4612.48830,N,02009.59923,E,3.312,202.97,190819,,,A*7D
$GNVTG,202.97,T,,M,3.312,N,6.133,K,A*29
$GNGGA,085930.60,4612.48830,N,02009.59923,E,1,12,0.63,214.7,M,37.6,M,,*4E
$GNRMC,085930.90,A,4612.48817,N,02009.59890,E,3.213,220.47,190819,,,A*73
$GNVTG,220.47,T,,M,3.213,N,5.951,K,A*2B
$GNGGA,085930.90,4612.48817,N,02009.59890,E,1,12,0.63,215.9,M,37.6,M,,*42
$GNRMC,085931.20,A,4612.48811,N,02009.59849,E,3.419,239.72,190819,,,A*79
$GNVTG,239.72,T,,M,3.419,N,6.331,K,A*26
$GNGGA,085931.20,4612.48811,N,02009.59849,E,1,12,0.63,216.9,M,37.6,M,,*49
$GNRMC,085931.50,A,4612.48815,N,02009.59800,E,3.998,259.57,190819,,,A*72
$GNVTG,259.57,T,,M,3.998,N,7.405,K,A*22
$GNGGA,085931.50,4612.48815,N,02009.59800,E,1,12,0.63,217.8,M,37.6,M,,*47
8823,N,02009.59744,E,1,12,0.63,218.6,M,37.6,M,,*41
$GNRMC,085932.10,A,4612.48840,N,02009.59682,E,5.339,283.72,190819,,,A*76
$GNVTG,283.72,T,,M,5.339,N,9.888,K,A*22
$GNGGA,085932.10,4612.48840,N,02009.59682,E,1,12,0.63,219.2,M,37.6,M,,*40
$GNRMC,085932.40,A,4612.48864,N,02009.59613,E,6.067,291.85,190819,,,A*7D
$GNVTG,291.85,T,,M,6.067,N,11.236,K,A*14
$GNGGA,085932.40,4612.48864,N,02009.59613,E,1,12,0.63,219.8,M,37.6,M,,*41
$GNRMC,085932.70,A,4612.48893,N,02009.59539,E,6.741,296.82,190819,,,A*7E
$GNVTG,296.82,T,,M,6.741,N,12.484,K,A*1B
$GNGGA,085932.70,4612.48893,N,02009.59539,E,1,12,0.63,220.2,M,37.6,M,,*41
$GNRMC,085933.00,A,4612.48928,N,02009.59461,E,7.459,300.50,190819,,,A*7F
$GNVTG,300.50,T,,M,7.459,N,13.813,K,A*12
$GNGGA,085933.00,4612.48928,N,02009.59461,E,1,12,0.63,220.6,M,37.6,M,,*4E
$GNRMC,085933.30,A,4612.48968,N,02009.59379,E,8.008,303.59,190819,,,A*73
$GNVTG,303.59,T,,M,8.008,N,14.830,K,A*11
$GNGGA,085933.30,4612.48968,N,02009.59379,E,1,12,0.63,220.8,M,37.6,M,,*49
$GNRMC,085933.60,A,4612.49013,N,02009.59295,E,8.481,306.41,190819,,,A*78
$GNVTG,306.41,T,,M,8.481,N,15.707,K,A*12
$GNGGA,085933.60,4612.49013,N,02009.59295,E,1,12,0.63,220.8,M,37.6,M,,*4B
$GNRMC,085933.90,A,4612.49060,N,02009.59206,E,8.886,307.78,190819,,,A*79
$GNVTG,307.78,T,,M,8.886,N,16.457,K,A*17
$GNGGA,085933.90,4612.49060,N,02009.59206,E,1,12,0.63,220.6,M,37.6,M,,*44
$GNRMC,085934.20,A,4612.49112,N,02009.59114,E,9.355,309.38,190819,,,A*7F
$GNVTG,309.38,T,,M,9.355,N,17.326,K,A*19
$GNGGA,085934.20,4612.49112,N,02009.59114,E,1,12,0.63,220.2,M,37.6,M,,*48
$GNRMC,085934.50,A,4612.49167,N,02009.59019,E,9.902,310.10,190819,,,A*7C
$GNVTG,310.10,T,,M,9.902,N,18.338,K,A*13
$GNGGA,085934.50,4612.49167,N,02009.59019,E,1,12,0.63,219.9,M,37.6,M,,*40
$GNRMC,085934.80,A,4612.49227,N,02009.58920,E,10.478,311.47,190819,,,A*4F
$GNVTG,311.47,T,,M,10.478,N,19.406,K,A*23
$GNGGA,085934.80,4612.49227,N,02009.58920,E,1,12,0.63,219.4,M,37.6,M,,*45
$GNRMC,085935.10,A,4612.49288,N,02009.58819,E,10.801,311.68,190819,,,A*46
$GNVTG,311.68,T,,M,10.801,N,20.004,K,A*20
$GNGGA,085935.10,4612.49288,N,02009.58819,E,1,12,0.63,218.8,M,37.6,M,,*4E
$GNRMC,085935.40,A,4612.49354,N,02009.58716,E,11.295,313.10,190819,,,A*48
$GNVTG,313.10,T,,M,11.295,N,20.918,K,A*2F
$GNGGA,085935.40,4612.49354,N,02009.58716,E,1,12,0.63,218.2,M,37.6,M,,*41
$GNRMC,085935.70,A,4612.49423,N,02009.58610,E,11.758,313.77,190819,,,A*4E
$GNVTG,313.77,T,,M,11.758,N,21.775,K,A*2E
$GNGGA,085935.70,4612.49423,N,02009.58610,E,1,12,0.63,217.5,M,37.6,M,,*4A
$GNRMC,085936.00,A,4612.49496,N,02009.58501,E,12.312,314.50,190819,,,A*4C
$GNVTG,314.50,T,,M,12.312,N,22.802,K,A*29
$GNGGA,085936.00,4612.49496,N,02009.58501,E,1,12,0.63,216.7,M,37.6,M,,*40
$GNRMC,085936.30,A,4612.49571,N,02009.58392,E,12.584,315.36,190819,,,A*43
$GNVTG,315.36,T,,M,12.584,N,23.305,K,A*2C
$GNGGA,085936.30,4612.49571,N,02009.58392,E,1,12,0.63,215.9,M,37.6,M,,*4A
$GNRMC,085936.60,A,4612.49640,N,02009.58281,E,12.582,314.54,190819,,,A*47
$GNVTG,314.54,T,,M,12.582,N,23.302,K,A*28
$GNGGA,085936.60,4612.49640,N,02009.58281,E,1,12,0.59,215.0,M,37.6,M,,*4D
$GNRMC,085936.90,A,4612.49719,N,02009.58166,E,13.268,315.47,190819,,,A*4E
$GNVTG,315.47,T,,M,13.268,N,24.573,K,A*2E
$GNGGA,085936.90,4612.49719,N,02009.58166,E,1,12,0.59,214.2,M,37.6,M,,*46
$GNRMC,085937.20,A,4612.49800,N,02009.58051,E,13.602,316.26,190819,,,A*4A
$GNVTG,316.26,T,,M,13.602,N,25.191,K,A*2B
$GNGGA,085937.20,4612.49800,N,02009.58051,E,1,12,0.59,213.4,M,37.6,M,,*4F
$GNRMC,085937.50,A,4612.49880,N,02009.57936,E,13.747,316.49,190819,,,A*4B
$GNVTG,316.49,T,,M,13.747,N,25.460,K,A*29
$GNGGA,085937.50,4612.49880,N,02009.57936,E,1,12,0.59,212.5,M,37.6,M,,*47
$GNRMC,085937.80,A,4612.49962,N,02009.57820,E,13.916,316.72,190819,,,A*4F
$GNVTG,316.72,T,,M,13.916,N,25.772,K,A*2B
$GNGGA,085937.80,4612.49962,N,02009.57820,E,1,12,0.59,211.6,M,37.6,M,,*41
$GNRMC,085938.10,A,4612.50046,N,02009.57701,E,14.091,316.33,190819,,,A*46
$GNVTG,316.33,T,,M,14.091,N,26.097,K,A*20
$GNGGA,085938.10,4612.50046,N,02009.57701,E,1,12,0.63,210.8,M,37.6,M,,*4A
$GNRMC,085938.40,A,4612.50130,N,02009.57586,E,14.139,317.26,190819,,,A*48
$GNVTG,317.26,T,,M,14.139,N,26.186,K,A*27
$GNGGA,085938.40,4612.50130,N,02009.57586,E,1,12,0.59,209.9,M,37.6,M,,*42
$GNRMC,085938.70,A,4612.50215,N,02009.57471,E,14.094,317.72,190819,,,A*41
$GNVTG,317.72,T,,M,14.094,N,26.103,K,A*2D
$GNGGA,085938.70,4612.50215,N,02009.57471,E,1,12,0.59,209.0,M,37.6,M,,*45
$GNRMC,085939.00,A,4612.50303,N,02009.57354,E,14.460,318.03,190819,,,A*47
$GNVTG,318.03,T,,M,14.460,N,26.779,K,A*20
$GNGGA,085939.00,4612.50303,N,02009.57354,E,1,12,0.59,208.2,M,37.6,M,,*46
$GNRMC,085939.30,A,4612.50394,N,02009.57236,E,14.660,318.40,190819,,,A*4A
$GNVTG,318.40,T,,M,14.660,N,27.150,K,A*29
$GNGGA,085939.30,4612.50394,N,02009.57236,E,1,12,0.59,207.4,M,37.6,M,,*47
$GNRMC,085939.60,A,4612.50486,N,02009.57119,E,14.799,319.47,190819,,,A*44
$GNVTG,319.47,T,,M,14.799,N,27.408,K,A*20
$GNGGA,085939.60,4612.50486,N,02009.57119,E,1,12,0.59,206.7,M,37.6,M,,*4A
$GNRMC,085939.90,A,4612.50580,N,02009.57003,E,14.921,319.64,190819,,,A*4A
$GNVTG,319.64,T,,M,14.921,N,27.633,K,A*26
$GNGGA,085939.90,4612.50580,N,02009.57003,E,1,12,0.59,206.0,M,37.6,M,,*4F
$GNRMC,085940.20,A,4612.50675,N,02009.56889,E,14.908,320.48,190819,,,A*42
$GNVTG,320.48,T,,M,14.908,N,27.610,K,A*28
$GNGGA,085940.20,4612.50675,N,02009.56889,E,1,12,0.59,205.3,M,37.6,M,,*48
$GNRMC,085940.50,A,4612.50772,N,02009.56774,E,15.062,320.81,190819,,,A*4F
$GNVTG,320.81,T,,M,15.062,N,27.896,K,A*29
$GNGGA,085940.50,4612.50772,N,02009.56774,E,1,12,0.59,204.6,M,37.6,M,,*40
$GNRMC,085940.80,A,4612.50868,N,02009.56662,E,14.953,321.53,190819,,,A*44
$GNVTG,321.53,T,,M,14.953,N,27.694,K,A*21
$GNGGA,085940.80,4612.50868,N,02009.56662,E,1,12,0.59,203.9,M,37.6,M,,*47
$GNRMC,085941.10,A,4612.50966,N,02009.56551,E,15.020,321.93,190819,,,A*40
$GNVTG,321.93,T,,M,15.020,N,27.817,K,A*24
$GNGGA,085941.10,4612.50966,N,02009.56551,E,1,12,0.59,203.2,M,37.6,M,,*48
$GNRMC,085941.40,A,4612.51065,N,02009.56442,E,14.997,322.88,190819,,,A*40
$GNVTG,322.88,T,,M,14.997,N,27.774,K,A*23
$GNGGA,085941.40,4612.51065,N,02009.56442,E,1,12,0.59,202.5,M,37.6,M,,*43
$GNRMC,085941.70,A,4612.51164,N,02009.56335,E,14.838,323.16,190819,,,A*46
$GNVTG,323.16,T,,M,14.838,N,27.481,K,A*28
$GNGGA,085941.70,4612.51164,N,02009.56335,E,1,12,0.59,201.8,M,37.6,M,,*49
$GNRMC,085942.00,A,4612.51264,N,02009.56230,E,14.945,324.17,190819,,,A*48
$GNVTG,324.17,T,,M,14.945,N,27.678,K,A*21
$GNGGA,085942.00,4612.51264,N,02009.56230,E,1,12,0.59,201.1,M,37.6,M,,*43
$GNRMC,085942.30,A,4612.51364,N,02009.56128,E,14.659,324.59,190819,,,A*48
$GNVTG,324.59,T,,M,14.659,N,27.148,K,A*2D
$GNGGA,085942.30,4612.51364,N,02009.56128,E,1,12,0.59,200.4,M,37.6,M,,*4F
$GNRMC,085942.60,A,4612.51464,N,02009.56028,E,14.679,325.16,190819,,,A*43
$GNVTG,325.16,T,,M,14.679,N,27.185,K,A*24
$GNGGA,085942.60,4612.51464,N,02009.56028,E,1,12,0.59,199.8,M,37.6,M,,*43
$GNRMC,085942.90,A,4612.51565,N,02009.55931,E,14.519,326.01,190819,,,A*4E
$GNVTG,326.01,T,,M,14.519,N,26.889,K,A*20
$GNGGA,085942.90,4612.51565,N,02009.55931,E,1,12,0.59,199.1,M,37.6,M,,*47
$GNRMC,085943.20,A,4612.51666,N,02009.55836,E,14.463,326.68,190819,,,A*41
$GNVTG,326.68,T,,M,14.463,N,26.786,K,A*23
$GNGGA,085943.20,4612.51666,N,02009.55836,E,1,12,0.59,198.5,M,37.6,M,,*4E
$GNRMC,085943.50,A,4612.51767,N,02009.55743,E,14.270,327.56,190819,,,A*43
$GNVTG,327.56,T,,M,14.270,N,26.429,K,A*2D
$GNGGA,085943.50,4612.51767,N,02009.55743,E,1,12,0.59,197.8,M,37.6,M,,*46
$GNRMC,085943.80,A,4612.51867,N,02009.55655,E,14.018,328.25,190819,,,A*40
$GNVTG,328.25,T,,M,14.018,N,25.961,K,A*28
$GNGGA,085943.80,4612.51867,N,02009.55655,E,1,12,0.59,197.2,M,37.6,M,,*48
$GNRMC,085944.10,A,4612.51969,N,02009.55569,E,14.015,329.18,190819,,,A*4F
$GNVTG,329.18,T,,M,14.015,N,25.955,K,A*2D
$GNGGA,085944.10,4612.51969,N,02009.55569,E,1,12,0.59,196.6,M,37.6,M,,*40
$GNRMC,085944.40,A,4612.52069,N,02009.55486,E,13.819,330.06,190819,,,A*44
$GNVTG,330.06,T,,M,13.819,N,25.593,K,A*2F
$GNGGA,085944.40,4612.52069,N,02009.55486,E,1,12,0.59,196.0,M,37.6,M,,*49
$GNRMC,085944.70,A,4612.52170,N,02009.55406,E,13.660,330.68,190819,,,A*4E
$GNVTG,330.68,T,,M,13.660,N,25.299,K,A*2A
$GNGGA,085944.70,4612.52170,N,02009.55406,E,1,12,0.59,195.3,M,37.6,M,,*4B
$GNRMC,085945.00,A,4612.52269,N,02009.55328,E,13.438,331.30,190819,,,A*4B
$GNVTG,331.30,T,,M,13.438,N,24.887,K,A*2D
$GNGGA,085945.00,4612.52269,N,02009.55328,E,1,12,0.59,194.7,M,37.6,M,,*48
$GNRMC,085945.30,A,4612.52368,N,02009.55253,E,13.261,332.02,190819,,,A*4D
$GNVTG,332.02,T,,M,13.261,N,24.560,K,A*21
$GNGGA,085945.30,4612.52368,N,02009.55253,E,1,12,0.59,194.1,M,37.6,M,,*40
$GNRMC,085945.60,A,4612.52467,N,02009.55180,E,13.116,332.80,190819,,,A*44
$GNVTG,332.80,T,,M,13.116,N,24.291,K,A*21
$GNGGA,085945.60,4612.52467,N,02009.55180,E,1,12,0.59,193.5,M,37.6,M,,*43
$GNRMC,085945.90,A,4612.52566,N,02009.55109,E,12.976,333.46,190819,,,A*4E
$GNVTG,333.46,T,,M,12.976,N,24.031,K,A*2D
$GNGGA,085945.90,4612.52566,N,02009.55109,E,1,12,0.59,192.8,M,37.6,M,,*41
$GNRMC,085946.20,A,4612.52664,N,02009.55040,E,12.869,334.04,190819,,,A*45
$GNVTG,334.04,T,,M,12.869,N,23.834,K,A*29
$GNGGA,085946.20,4612.52664,N,02009.55040,E,1,12,0.59,192.2,M,37.6,M,,*4E
$GNRMC,085946.50,A,4612.52760,N,02009.54974,E,12.653,334.61,190819,,,A*4C
$GNVTG,334.61,T,,M,12.653,N,23.434,K,A*21
$GNGGA,085946.50,4612.52760,N,02009.54974,E,1,12,0.59,191.6,M,37.6,M,,*44
$GNRMC,085946.80,A,4612.52858,N,02009.54911,E,12.585,335.79,190819,,,A*46
$GNVTG,335.79,T,,M,12.585,N,23.308,K,A*29
$GNGGA,085946.80,4612.52858,N,02009.54911,E,1,12,0.59,190.9,M,37.6,M,,*40
$GNRMC,085947.10,A,4612.52953,N,02009.54851,E,12.242,336.46,190819,,,A*42
$GNVTG,336.46,T,,M,12.242,N,22.673,K,A*22
$GNGGA,085947.10,4612.52953,N,02009.54851,E,1,12,0.59,190.2,M,37.6,M,,*4C
$GNRMC,085947.40,A,4612.53048,N,02009.54794,E,12.189,337.09,190819,,,A*4D
$GNVTG,337.09,T,,M,12.189,N,22.574,K,A*28
$GNGGA,085947.40,4612.53048,N,02009.54794,E,1,12,0.59,189.5,M,37.6,M,,*42
$GNRMC,085947.70,A,4612.53142,N,02009.54740,E,12.043,338.30,190819,,,A*4E
$GNVTG,338.30,T,,M,12.043,N,22.305,K,A*2A
$GNGGA,085947.70,4612.53142,N,02009.54740,E,1,12,0.59,188.8,M,37.6,M,,*4F
$GNRMC,085948.00,A,4612.53235,N,02009.54686,E,11.876,338.30,190819,,,A*43
$GNVTG,338.30,T,,M,11.876,N,21.994,K,A*26
$GNGGA,085948.00,4612.53235,N,02009.54686,E,1,12,0.59,188.1,M,37.6,M,,*46
$GNRMC,085948.30,A,4612.53327,N,02009.54636,E,11.610,339.21,190819,,,A*46
$GNVTG,339.21,T,,M,11.610,N,21.502,K,A*2A
$GNGGA,085948.30,4612.53327,N,02009.54636,E,1,12,0.59,187.5,M,37.6,M,,*47
$GNRMC,085948.60,A,4612.53418,N,02009.54589,E,11.441,339.82,190819,,,A*40
$GNVTG,339.82,T,,M,11.441,N,21.189,K,A*22
$GNGGA,085948.60,4612.53418,N,02009.54589,E,1,12,0.59,186.8,M,37.6,M,,*42
$GNRMC,085948.90,A,4612.53509,N,02009.54543,E,11.426,340.69,190819,,,A*42
$GNVTG,340.69,T,,M,11.426,N,21.161,K,A*2E
$GNGGA,085948.90,4612.53509,N,02009.54543,E,1,12,0.59,186.1,M,37.6,M,,*43
$GNRMC,085949.20,A,4612.53599,N,02009.54500,E,11.260,341.77,190819,,,A*4C
$GNVTG,341.77,T,,M,11.260,N,20.854,K,A*2A
$GNGGA,085949.20,4612.53599,N,02009.54500,E,1,12,0.59,185.3,M,37.6,M,,*46
$GNRMC,085949.50,A,4612.53688,N,02009.54460,E,11.050,342.39,190819,,,A*47
$GNVTG,342.39,T,,M,11.050,N,20.465,K,A*2C
$GNGGA,085949.50,4612.53688,N,02009.54460,E,1,12,0.59,184.6,M,37.6,M,,*41
$GNRMC,085949.80,A,4612.53778,N,02009.54422,E,11.004,343.62,190819,,,A*4C
$GNVTG,343.62,T,,M,11.004,N,20.380,K,A*2E
$GNGGA,085949.80,4612.53778,N,02009.54422,E,1,12,0.59,183.9,M,37.6,M,,*4C
$GNRMC,085950.10,A,4612.53868,N,02009.54386,E,10.918,344.35,190819,,,A*4A
$GNVTG,344.35,T,,M,10.918,N,20.221,K,A*24
$GNGGA,085950.10,4612.53868,N,02009.54386,E,1,12,0.59,183.2,M,37.6,M,,*41
$GNRMC,085950.40,A,4612.53955,N,02009.54353,E,10.665,345.00,190819,,,A*4A
$GNVTG,345.00,T,,M,10.665,N,19.751,K,A*2E
$GNGGA,085950.40,4612.53955,N,02009.54353,E,1,12,0.59,182.5,M,37.6,M,,*45
$GNRMC,085950.70,A,4612.54043,N,02009.54322,E,10.717,345.85,190819,,,A*4F
$GNVTG,345.85,T,,M,10.717,N,19.848,K,A*20
$GNGGA,085950.70,4612.54043,N,02009.54322,E,1,12,0.59,181.9,M,37.6,M,,*46
$GNRMC,085951.00,A,4612.54129,N,02009.54292,E,10.557,346.00,190819,,,A*46
$GNVTG,346.00,T,,M,10.557,N,19.551,K,A*2D
$GNGGA,085951.00,4612.54129,N,02009.54292,E,1,12,0.59,181.5,M,37.6,M,,*4B
$GNRMC,085951.30,A,4612.54214,N,02009.54265,E,10.415,347.09,190819,,,A*4F
$GNVTG,347.09,T,,M,10.415,N,19.288,K,A*21
$GNGGA,085951.30,4612.54214,N,02009.54265,E,1,12,0.59,181.2,M,37.6,M,,*4A
$GNRMC,085951.60,A,4612.54301,N,02009.54240,E,10.430,347.70,190819,,,A*41
$GNVTG,347.70,T,,M,10.430,N,19.317,K,A*2F
$GNGGA,085951.60,4612.54301,N,02009.54240,E,1,12,0.59,181.0,M,37.6,M,,*4F
$GNRMC,085951.90,A,4612.54387,N,02009.54216,E,10.322,348.72,190819,,,A*4A
$GNVTG,348.72,T,,M,10.322,N,19.116,K,A*25
$GNGGA,085951.90,4612.54387,N,02009.54216,E,1,12,0.59,180.9,M,37.6,M,,*45
$GNRMC,085952.20,A,4612.54473,N,02009.54193,E,10.276,348.81,190819,,,A*4C
$GNVTG,348.81,T,,M,10.276,N,19.030,K,A*2C
$GNGGA,085952.20,4612.54473,N,02009.54193,E,1,12,0.59,180.7,M,37.6,M,,*41
$GNRMC,085952.50,A,4612.54559,N,02009.54173,E,10.173,349.58,190819,,,A*4F
$GNVTG,349.58,T,,M,10.173,N,18.840,K,A*21
$GNGGA,085952.50,4612.54559,N,02009.54173,E,1,12,0.59,180.6,M,37.6,M,,*40
$GNRMC,085952.80,A,4612.54646,N,02009.54154,E,10.213,350.26,190819,,,A*4E
$GNVTG,350.26,T,,M,10.213,N,18.914,K,A*25
$GNGGA,085952.80,4612.54646,N,02009.54154,E,1,12,0.59,180.6,M,37.6,M,,*45
$GNRMC,085953.10,A,4612.54732,N,02009.54137,E,10.127,351.00,190819,,,A*40
$GNVTG,351.00,T,,M,10.127,N,18.756,K,A*2C
$GNGGA,085953.10,4612.54732,N,02009.54137,E,1,12,0.59,180.6,M,37.6,M,,*4A
$GNRMC,085953.40,A,4612.54818,N,02009.54121,E,10.219,351.61,190819,,,A*4C
$GNVTG,351.61,T,,M,10.219,N,18.926,K,A*2C
$GNGGA,085953.40,4612.54818,N,02009.54121,E,1,12,0.59,180.6,M,37.6,M,,*4F
$GNRMC,085953.70,A,4612.54903,N,02009.54105,E,10.114,352.18,190819,,,A*41
$GNVTG,352.18,T,,M,10.114,N,18.731,K,A*27
$GNGGA,085953.70,4612.54903,N,02009.54105,E,1,12,0.59,180.7,M,37.6,M,,*40
$GNRMC,085954.00,A,4612.54987,N,02009.54091,E,9.996,352.49,190819,,,A*7F
$GNVTG,352.49,T,,M,9.996,N,18.513,K,A*1B
$GNGGA,085954.00,4612.54987,N,02009.54091,E,1,12,0.59,180.9,M,37.6,M,,*4E
$GNRMC,085954.30,A,4612.55072,N,02009.54078,E,10.074,353.29,190819,,,A*43
$GNVTG,353.29,T,,M,10.074,N,18.657,K,A*22
$GNGGA,085954.30,4612.55072,N,02009.54078,E,1,12,0.59,181.0,M,37.6,M,,*40
$GNRMC,085954.60,A,4612.55156,N,02009.54064,E,9.905,353.08,190819,,,A*78
$GNVTG,353.08,T,,M,9.905,N,18.344,K,A*11
$GNGGA,085954.60,4612.55156,N,02009.54064,E,1,12,0.59,181.3,M,37.6,M,,*4C
$GNRMC,085954.90,A,4612.55239,N,02009.54052,E,9.982,353.58,190819,,,A*72
$GNVTG,353.58,T,,M,9.982,N,18.487,K,A*13
$GNGGA,085954.90,4612.55239,N,02009.54052,E,1,12,0.59,181.5,M,37.6,M,,*4A
$GNRMC,085955.20,A,4612.55323,N,02009.54040,E,10.048,354.04,190819,,,A*48
$GNVTG,354.04,T,,M,10.048,N,18.609,K,A*2E
$GNGGA,085955.20,4612.55323,N,02009.54040,E,1,12,0.59,181.7,M,37.6,M,,*4B
$GNRMC,085955.50,A,4612.55407,N,02009.54031,E,9.960,355.06,190819,,,A*70
$GNVTG,355.06,T,,M,9.960,N,18.445,K,A*1C
$GNGGA,085955.50,4612.55407,N,02009.54031,E,1,12,0.59,181.9,M,37.6,M,,*45
$GNRMC,085955.80,A,4612.55491,N,02009.54020,E,9.991,355.00,190819,,,A*7A
$GNVTG,355.00,T,,M,9.991,N,18.503,K,A*17
$GNGGA,085955.80,4612.55491,N,02009.54020,E,1,12,0.59,182.1,M,37.6,M,,*4C
$GNRMC,085956.10,A,4612.55574,N,02009.54011,E,9.935,355.43,190819,,,A*71
$GNVTG,355.43,T,,M,9.935,N,18.400,K,A*1C
$GNGGA,085956.10,4612.55574,N,02009.54011,E,1,12,0.59,182.4,M,37.6,M,,*4B
$GNRMC,085956.40,A,4612.55657,N,02009.54004,E,9.848,356.04,190819,,,A*79
